Domain Name,Domain Type,Agency,City,State,Latitude,Longitude
GOODLETTSVILLE.GOV,City,Commission on Civil Rights,Goodlettsville,TN,36.32310907,-86.7133283
SANFRANCISCO.GOV,City,General Services Administration,San Francisco,CA,37.77492774,-122.4194193
SF.GOV,City,General Services Administration,San Francisco,CA,37.77492774,-122.4194193
MLTWA.GOV,City,gov Helpdesk,Mountlake Terrace,WA,47.78814568,-122.3087381
TUALATIN.GOV,City,gov Helpdesk,Tualatin,OR,45.38400902,-122.7639897
ABERDEENMD.GOV,City,Non-Federal Agency,Aberdeen,MD,39.50955981,-76.16411792
ABERDEENWA.GOV,City,Non-Federal Agency,Aberdeen,WA,46.97536931,-123.8157174
ABINGDON-VA.GOV,City,Non-Federal Agency,Abingdon,VA,36.70982725,-81.97734557
ABINGTONMA.GOV,City,Non-Federal Agency,Abington,MA,42.10481701,-70.94531902
ABSECONNJ.GOV,City,Non-Federal Agency,Absecon,NJ,39.42844551,-74.49570647
ACCESSPRINCETONNJ.GOV,City,Non-Federal Agency,Princeton,NJ,40.34871734,-74.65904648
ACTON-MA.GOV,City,Non-Federal Agency,Acton,MA,42.48508727,-71.43283726
ACTONMA.GOV,City,Non-Federal Agency,Acton,MA,42.48508727,-71.43283726
ADAK-AK.GOV,City,Non-Federal Agency,Adak,AK,51.87999708,-176.6580563
ADAMN.GOV,City,Non-Federal Agency,Ada,MN,47.29968703,-96.51534849
ADDISONTX.GOV,City,Non-Federal Agency,Addison,TX,32.96178584,-96.82916865
ADRIANMI.GOV,City,Non-Federal Agency,Adrian,MI,41.8975474,-84.03716828
AFTONWYOMING.GOV,City,Non-Federal Agency,AFTON,WY,42.72492948,-110.9318667
AKRONOHIO.GOV,City,Non-Federal Agency,Akron,OH,41.08143682,-81.51900724
ALAMEDACA.GOV,City,Non-Federal Agency,Alameda,CA,37.7652086,-122.2416356
ALAMOHEIGHTSTX.GOV,City,Non-Federal Agency,Alamo Heights,TX,29.48494887,-98.46584891
ALBANYNY.GOV,City,Non-Federal Agency,Albany,NY,42.6525759,-73.75622859
ALBEMARLENC.GOV,City,Non-Federal Agency,Albemarle,NC,35.35013791,-80.20005728
ALBUQUERQUE-NM.GOV,City,Non-Federal Agency,Albuquerque,NM,35.08448598,-106.6511356
ALEKNAGIKAK.GOV,City,Non-Federal Agency,Aleknagik,AK,59.27305704,-158.6177757
ALEXANDERCITYAL.GOV,City,Non-Federal Agency,Alexander City,AL,32.94400792,-85.9538497
ALEXANDRIANJ.GOV,City,Non-Federal Agency,Milford,NJ,40.56870732,-75.09461682
ALEXANDRIAVA.GOV,City,Non-Federal Agency,Alexandria,VA,38.80483684,-77.04691708
ALFREDME.GOV,City,Non-Federal Agency,Alfred,ME,43.47646629,-70.71838616
ALGONAC-MI.GOV,City,Non-Federal Agency,Algonac,MI,42.61836994,-82.53101693
ALGONAWA.GOV,City,Non-Federal Agency,Algona,WA,47.27898887,-122.2520567
ALGOODTN.GOV,City,Non-Federal Agency,Algood,TN,36.19588736,-85.44857604
ALIQUIPPAPA.GOV,City,Non-Federal Agency,Aliquippa,PA,40.63672779,-80.24005873
ALLENDALENJ.GOV,City,Non-Federal Agency,Allendale,NJ,41.04148937,-74.12902951
ALLENSTOWNNH.GOV,City,Non-Federal Agency,Allenstown,NH,43.15785857,-71.40561918
ALLENTOWNPA.GOV,City,Non-Federal Agency,Allentown,PA,40.6084298,-75.49017672
ALLIANCEOH.GOV,City,Non-Federal Agency,Alliance,OH,40.91533856,-81.10592589
ALMONTMICHIGAN.GOV,City,Non-Federal Agency,Almont,MI,42.92057662,-83.04492983
ALSTEADNH.GOV,City,Non-Federal Agency,Alstead,NH,43.14896735,-72.36063693
ALTAVISTAVA.GOV,City,Non-Federal Agency,Altavista,VA,37.11180808,-79.28557643
ALTON-TX.GOV,City,Non-Federal Agency,Alton,TX,26.28728962,-98.31334844
ALTOONAPA.GOV,City,Non-Federal Agency,Altoona,PA,40.51867626,-78.39473648
ALTUSOK.GOV,City,Non-Federal Agency,Altus,OK,34.63812559,-99.33397938
ALVIN-TX.GOV,City,Non-Federal Agency,Alvin,TX,29.42384879,-95.2440988
AMARILLO.GOV,City,Non-Federal Agency,Amarillo,TX,35.22199828,-101.8312983
AMENIANY.GOV,City,Non-Federal Agency,Amenia,NY,41.84925769,-73.55678829
AMERICUSGA.GOV,City,Non-Federal Agency,Americus,GA,32.07238577,-84.23268943
AMERYWI.GOV,City,Non-Federal Agency,Amery,WI,45.30690836,-92.36213604
AMHERSTMA.GOV,City,Non-Federal Agency,Amherst,MA,42.38036806,-72.52313551
AMHERSTNH.GOV,City,Non-Federal Agency,Amherst,NH,42.86146987,-71.62534818
AMHERSTVA.GOV,City,Non-Federal Agency,Amherst,VA,37.58513908,-79.05140821
AMITYARKANSAS.GOV,City,Non-Federal Agency,Amity,AR,34.26481622,-93.46101953
AMSTERDAMNY.GOV,City,Non-Federal Agency,Amsterdam,NY,42.93868751,-74.18818576
ANCHORAGEAK.GOV,City,Non-Federal Agency,Anchorage,AK,61.21805894,-149.9002762
ANDOVER-NH.GOV,City,Non-Federal Agency,Andover,NH,43.43701829,-71.8234071
ANDOVERMA.GOV,City,Non-Federal Agency,Andover,MA,42.65842988,-71.13699752
ANDOVERMN.GOV,City,Non-Federal Agency,Andover,MN,45.2332994,-93.29133959
ANGELFIRENM.GOV,City,Non-Federal Agency,Angel Fire,NM,36.39308686,-105.2850073
ANKENYIOWA.GOV,City,Non-Federal Agency,Ankeny,IA,41.7297078,-93.60576718
ANNATEXAS.GOV,City,Non-Federal Agency,Anna,TX,33.34899898,-96.54859604
ANNETTATX.GOV,City,Non-Federal Agency,Aledo,TX,32.69595843,-97.60224955
ANNISTONAL.GOV,City,Non-Federal Agency,Anniston,AL,33.6598269,-85.83162705
ANTIOCHTOWNSHIPIL.GOV,City,Non-Federal Agency,Lake Villa,IL,42.41696781,-88.07396706
APPLEVALLEYUT.GOV,City,Non-Federal Agency,Apple Valley,UT,40.61772597,-111.7938192
APPOMATTOXVA.GOV,City,Non-Federal Agency,Appomattox,VA,37.35708581,-78.82528977
AQUINNAH-MA.GOV,City,Non-Federal Agency,Aquinnah,MA,41.33344596,-70.79946897
ARANSASPASSTX.GOV,City,Non-Federal Agency,Aransas Pass,TX,27.90946768,-97.14998568
ARCADIA-FL.GOV,City,Non-Federal Agency,Arcadia,FL,27.21587672,-81.85841662
ARCADIACA.GOV,City,Non-Federal Agency,Arcadia,CA,34.13972732,-118.0353369
ARCHBALDBOROUGHPA.GOV,City,Non-Federal Agency,Archbald,PA,41.49479714,-75.53684658
ARCHDALE-NC.GOV,City,Non-Federal Agency,ARCHDALE,NC,35.91457682,-79.97197702
ARKANSASCITYKS.GOV,City,Non-Federal Agency,Arkansas City,KS,37.061966,-97.03836858
ARLINGTON-TX.GOV,City,Non-Federal Agency,Arlington,TX,32.73568991,-97.1080674
ARLINGTONMA.GOV,City,Non-Federal Agency,Arlington,MA,42.41536595,-71.15643579
ARLINGTONTX.GOV,City,Non-Federal Agency,Arlington,TX,32.73568991,-97.1080674
ARLINGTONWA.GOV,City,Non-Federal Agency,Arlington,WA,48.19870725,-122.1251364
ARTESIANM.GOV,City,Non-Federal Agency,Artesia,NM,32.84232594,-104.403297
ARTHUR-IL.GOV,City,Non-Federal Agency,Arthur,IL,39.7147596,-88.47227622
ASHBURNHAM-MA.GOV,City,Non-Federal Agency,Ashburnham,MA,42.63619736,-71.90784661
ASHBYMA.GOV,City,Non-Federal Agency,Ashby,MA,42.67786816,-71.82034738
ASHEBORONC.GOV,City,Non-Federal Agency,Asheboro,NC,35.70790566,-79.81363607
ASHEVILLENC.GOV,City,Non-Federal Agency,Asheville,NC,35.60094565,-82.55401889
ASHGROVEMO.GOV,City,Non-Federal Agency,Ash Grove,MO,37.31532952,-93.58519951
ASHLANDCITYTN.GOV,City,Non-Federal Agency,Ashland City,TN,36.27421641,-87.06416667
ASHLANDKY.GOV,City,Non-Federal Agency,Ashland,KY,38.47840881,-82.63793645
ASHVILLEOHIO.GOV,City,Non-Federal Agency,Ashville,OH,39.71561902,-82.95295799
ATHENSTX.GOV,City,Non-Federal Agency,Athens,TX,32.20486751,-95.85551805
ATHOL-MA.GOV,City,Non-Federal Agency,Athol,MA,42.59591693,-72.22674681
ATKINSON-NH.GOV,City,Non-Federal Agency,Atkinson,NH,42.83841841,-71.14699563
ATLANTAGA.GOV,City,Non-Federal Agency,Atlanta,GA,33.74899999,-84.38797965
ATLANTISFL.GOV,City,Non-Federal Agency,Atlantis,FL,26.59089568,-80.10087708
ATTICA-IN.GOV,City,Non-Federal Agency,Attica,IN,40.29419568,-87.24889778
AUBREYTX.GOV,City,Non-Federal Agency,Aubrey,TX,33.30427745,-96.98611922
AUBURNMAINE.GOV,City,Non-Federal Agency,Auburn,ME,44.09784765,-70.2311694
AUBURNNY.GOV,City,Non-Federal Agency,Auburn,NY,42.93172663,-76.56604925
AUBURNWA.GOV,City,Non-Federal Agency,Auburn,WA,47.30731835,-122.2284473
AUGUSTAMAINE.GOV,City,Non-Federal Agency,Augusta,ME,44.31061577,-69.77948598
AUGUSTAME.GOV,City,Non-Federal Agency,Augusta,ME,44.31061577,-69.77948598
AURORATEXAS.GOV,City,Non-Federal Agency,Rhome,TX,33.05345621,-97.47196811
AUSTELLGA.GOV,City,Non-Federal Agency,Austell,GA,33.81260634,-84.63437779
AUSTINTEXAS.GOV,City,Non-Federal Agency,Austin,TX,30.26714596,-97.74305555
AUSTINTX.GOV,City,Non-Federal Agency,Austin,TX,30.26714596,-97.74305555
AVONCT.GOV,City,Non-Federal Agency,Avon,CT,41.80981869,-72.83064722
AVONDALEAZ.GOV,City,Non-Federal Agency,Avondale,AZ,33.4355983,-112.3495964
AZTECNM.GOV,City,Non-Federal Agency,Aztec,NM,36.82222728,-107.992849
BAINBRIDGEWA.GOV,City,Non-Federal Agency,Bainbridge Island,WA,47.62620955,-122.5212363
BAKERSFIELD-CA.GOV,City,Non-Federal Agency,Bakersfield,CA,35.37328835,-119.0187066
BALHARBOURFL.GOV,City,Non-Federal Agency,Bal Harbour,FL,25.89175672,-80.12698826
BALTIMORECITY.GOV,City,Non-Federal Agency,Baltimore,MD,39.29037976,-76.61218816
BANGORMAINE.GOV,City,Non-Federal Agency,Bangor,ME,44.80117574,-68.77780736
BARLINGAR.GOV,City,Non-Federal Agency,Barling,AR,35.32564658,-94.30159894
BARRINGTON-IL.GOV,City,Non-Federal Agency,Barrington,IL,42.15390765,-88.13618754
BARRINGTONHILLS-IL.GOV,City,Non-Federal Agency,Barrington Hills,IL,42.14474647,-88.15562582
BASSLAKEWI.GOV,City,Non-Federal Agency,Hayward,WI,46.01300821,-91.48461941
BASTROPTX.GOV,City,Non-Federal Agency,Bastrop,TX,30.11048786,-97.31526951
BATTLECREEK-MI.GOV,City,Non-Federal Agency,Battle Creek,MI,42.32114881,-85.1797069
BATTLECREEKMI.GOV,City,Non-Federal Agency,Battle Creek,MI,42.32114881,-85.1797069
BATTLEFIELDMO.GOV,City,Non-Federal Agency,Battlefield,MO,37.11560574,-93.37018609
BAXTERMN.GOV,City,Non-Federal Agency,Baxter,MN,46.3432969,-94.28666926
BAYCOUNTY-MI.GOV,City,Non-Federal Agency,Bay City,MI,43.59446832,-83.88885694
BAYSIDE-WI.GOV,City,Non-Federal Agency,Bayside,WI,43.18055905,-87.90063795
BAYSTLOUIS-MS.GOV,City,Non-Federal Agency,Bay St. Louis,MS,30.30880776,-89.3300486
BAYVILLENY.GOV,City,Non-Federal Agency,Bayville,NY,40.91064998,-73.56206632
BEACHHAVEN-NJ.GOV,City,Non-Federal Agency,Beach Haven,NJ,39.5592759,-74.24319788
BEAUMONT-CA.GOV,City,Non-Federal Agency,Beaumont,CA,33.92945647,-116.9772467
BEAUMONTTEXAS.GOV,City,Non-Federal Agency,Beaumont,TX,30.08604603,-94.10184816
BEAUXARTS-WA.GOV,City,Non-Federal Agency,Beaux Arts,WA,47.58532618,-122.1983179
BEAVERCREEKOHIO.GOV,City,Non-Federal Agency,Beavercreek,OH,39.70922959,-84.06326597
BEAVERPA.GOV,City,Non-Federal Agency,Beaver,PA,40.69533958,-80.30477649
BEAVERTONOREGON.GOV,City,Non-Federal Agency,Beaverton,OR,45.48705888,-122.8037077
BEAVERTWP-OH.GOV,City,Non-Federal Agency,North Lima,OH,40.94838813,-80.65895806
BECKEMEYERIL.GOV,City,Non-Federal Agency,Beckemeyer,IL,38.60559902,-89.43591971
BEDFORDHEIGHTS.GOV,City,Non-Federal Agency,Bedford Heights,OH,41.41699905,-81.527336
BEDFORDMA.GOV,City,Non-Federal Agency,Bedford,MA,42.49064877,-71.27616567
BEDFORDNY.GOV,City,Non-Federal Agency,Bedford Hills,NY,41.23675854,-73.69457956
BEDFORDOH.GOV,City,Non-Federal Agency,Bedford,OH,41.39310617,-81.53650618
BEDFORDTX.GOV,City,Non-Federal Agency,Bedford,TX,32.84401779,-97.14306979
BEDFORDVA.GOV,City,Non-Federal Agency,Bedford,VA,37.33430884,-79.52308785
BEECAVETEXAS.GOV,City,Non-Federal Agency,Bee Cave,TX,30.30853779,-97.94500663
BELAIREKS.GOV,City,Non-Federal Agency,Bel Aire,KS,39.50505571,-76.31975911
BELEN-NM.GOV,City,Non-Federal Agency,Belen,NM,34.6628374,-106.7764179
BELLAIRETX.GOV,City,Non-Federal Agency,Bellaire,TX,29.70578927,-95.45882875
BELLAVISTAAR.GOV,City,Non-Federal Agency,Bella Vista,AR,36.42951562,-94.23159865
BELLEAIRBLUFFS-FL.GOV,City,Non-Federal Agency,Belleair Bluffs,FL,27.92140962,-82.81704755
BELLEFONTEPA.GOV,City,Non-Federal Agency,Bellefonte,PA,40.91338574,-77.77832718
BELLEMEADE-KY.GOV,City,Non-Federal Agency,Louisville,KY,38.2542387,-85.75940845
BELLERIVEACRESMO.GOV,City,Non-Federal Agency,Normandy,MO,38.72087879,-90.29733677
BELLEVUEIA.GOV,City,Non-Federal Agency,Bellevue,IA,42.25862686,-90.42290712
BELLEVUEWA.GOV,City,Non-Federal Agency,Bellevue,WA,47.61037996,-122.2006757
BELMONT-MA.GOV,City,Non-Federal Agency,Belmont,MA,42.39592768,-71.17866832
BELMONT.GOV,City,Non-Federal Agency,Belmont,CA,37.52020984,-122.2757966
BELOITWI.GOV,City,Non-Federal Agency,Beloit,WI,42.5083457,-89.03177907
BELTONPARKSMO.GOV,City,Non-Federal Agency,Belton,MO,38.81194621,-94.5318975
BELTONTEXAS.GOV,City,Non-Federal Agency,Belton,TX,31.05600696,-97.46444927
BENBROOK-TX.GOV,City,Non-Federal Agency,Benbrook,TX,32.67318595,-97.46057962
BENDOREGON.GOV,City,Non-Federal Agency,Bend,OR,44.05816567,-121.3153073
BENSALEMPA.GOV,City,Non-Federal Agency,Bensalem,PA,40.10454651,-74.95127754
BENSONAZ.GOV,City,Non-Federal Agency,Benson,AZ,31.96785554,-110.2945163
BENTONCHARTERTOWNSHIP-MI.GOV,City,Non-Federal Agency,Benton Harbor,MI,42.11670945,-86.4541873
BENTONIL.GOV,City,Non-Federal Agency,Benton,IL,37.99671755,-88.92006748
BEREAKY.GOV,City,Non-Federal Agency,Berea,KY,37.56868854,-84.29631829
BERKELEYHEIGHTSTWPNJ.GOV,City,Non-Federal Agency,Berkeley Heights,NJ,40.68342914,-74.44264718
BERLINMD.GOV,City,Non-Federal Agency,Berlin,MD,38.32261913,-75.2176899
BERLINNH.GOV,City,Non-Federal Agency,Berlin,NH,44.46866875,-71.18507575
BERNCO.GOV,City,Non-Federal Agency,Albuquerque,NM,35.08448598,-106.6511356
BERRYVILLEVA.GOV,City,Non-Federal Agency,Berryville,VA,39.15176956,-77.98221758
BERTHOLD-ND.GOV,City,Non-Federal Agency,Berthold,ND,48.3130691,-101.7371081
BERWYN-IL.GOV,City,Non-Federal Agency,Berwyn,IL,41.85058957,-87.79366894
BERWYNHEIGHTSMD.GOV,City,Non-Federal Agency,Berwyn Heights,MD,38.99399556,-76.91052968
BETHANYBEACH-DE.GOV,City,Non-Federal Agency,Bethany Beach,DE,38.54026932,-75.05475936
BETHEL-CT.GOV,City,Non-Federal Agency,Bethel,CT,41.37120661,-73.41400696
BETHEL-OH.GOV,City,Non-Federal Agency,Bethel,OH,38.96367725,-84.08076941
BETHLEHEM-PA.GOV,City,Non-Federal Agency,Bethlehem,PA,40.62592874,-75.37045585
BEVERLYHILLS-CA.GOV,City,Non-Federal Agency,Beverly Hills,CA,34.07361918,-118.400358
BEVERLYHILLSCA.GOV,City,Non-Federal Agency,Beverly Hills,CA,34.07361918,-118.400358
BEVERLYMA.GOV,City,Non-Federal Agency,Beverly,MA,42.55842626,-70.88004782
BHTX.GOV,City,Non-Federal Agency,Balcones Heights,TX,29.4880086,-98.55168779
BIGFLATSNY.GOV,City,Non-Federal Agency,Big Flats,NY,42.13729963,-76.93690634
BIGGS-CA.GOV,City,Non-Federal Agency,Biggs,CA,39.41238643,-121.712748
BIGSANDYTX.GOV,City,Non-Federal Agency,Big Sandy,TX,32.58374739,-95.10882731
BINGHAMTON-NY.GOV,City,Non-Federal Agency,Binghamton,NY,42.09868855,-75.91796726
BIRMINGHAMAL.GOV,City,Non-Federal Agency,Birmingham,AL,33.52065875,-86.80248789
BISBEEAZ.GOV,City,Non-Federal Agency,Bisbee,AZ,31.44814716,-109.9284062
BISCAYNEPARKFL.GOV,City,Non-Federal Agency,Biscayne Park,FL,25.79425937,-80.19254745
BISMARCKND.GOV,City,Non-Federal Agency,Bismarck,ND,46.80832613,-100.7837372
BIXBYOK.GOV,City,Non-Federal Agency,Bixby,OK,35.94203788,-95.88331658
BLACKSBURG.GOV,City,Non-Federal Agency,Blacksburg,VA,37.22956713,-80.4139368
BLAINEMN.GOV,City,Non-Federal Agency,Blaine,MN,45.16079733,-93.23494609
BLAIRSVILLE-GA.GOV,City,Non-Federal Agency,Blairsville,GA,34.87619946,-83.95823629
BLANDING-UT.GOV,City,Non-Federal Agency,Blanding,UT,37.62415961,-109.4781762
BLENDONTOWNSHIP-MI.GOV,City,Non-Federal Agency,Hudsonville,MI,42.87085603,-85.86503658
BLISSFIELDMICHIGAN.GOV,City,Non-Federal Agency,Blissfield,MI,41.83254617,-83.86243979
BLOOMINGDALE-GA.GOV,City,Non-Federal Agency,Bloomingdale,GA,32.13241944,-81.29899926
BLOOMINGTON-MN.GOV,City,Non-Federal Agency,Bloomington,MN,44.84079923,-93.29827797
BLOOMINGTONMN.GOV,City,Non-Federal Agency,Bloomington,MN,44.84079923,-93.29827797
BLUEASH-OH.GOV,City,Non-Federal Agency,Blue Ash,OH,39.23199744,-84.37826951
BOCARATON-FL.GOV,City,Non-Federal Agency,Boca Raton,FL,26.35868929,-80.08309916
BOERNE-TX.GOV,City,Non-Federal Agency,BOERNE,TX,29.79465639,-98.7319688
BOISEIDAHO.GOV,City,Non-Federal Agency,Boise,ID,43.61349713,-116.2034459
BOLTON-MA.GOV,City,Non-Federal Agency,Bolton,MA,42.43342735,-71.60783573
BONNEYTEXAS.GOV,City,Non-Federal Agency,Bonney,TX,29.31662781,-95.44799821
BOONEVILLE-MS.GOV,City,Non-Federal Agency,Booneville,MS,34.65814881,-88.56671834
BORGERTX.GOV,City,Non-Federal Agency,Borger,TX,35.66781872,-101.3973883
BOSQUEFARMSNM.GOV,City,Non-Federal Agency,Bosque Farms,NM,34.85477686,-106.7052973
BOSTON.GOV,City,Non-Federal Agency,Boston,MA,42.35842801,-71.05976637
BOTHELLWA.GOV,City,Non-Federal Agency,Bothell,WA,47.76231798,-122.2053958
BOULDER-CO.GOV,City,Non-Federal Agency,Boulder,CO,40.01498646,-105.2705456
BOULDERCOLORADO.GOV,City,Non-Federal Agency,Boulder,CO,40.01498646,-105.2705456
BOUNTIFULUTAH.GOV,City,Non-Federal Agency,Bountiful,UT,40.88938936,-111.8807695
BOURBON-IN.GOV,City,Non-Federal Agency,Bremen,IN,41.44643993,-86.14805697
BOW-NH.GOV,City,Non-Federal Agency,Bow,NH,43.12063787,-71.51145879
BOWERSDE.GOV,City,Non-Federal Agency,"Frederica,",DE, DE,39.00899723
BOWLINGGREEN-MO.GOV,City,Non-Federal Agency,Bowling Green,MO,39.34198568,-91.1951376
BOWLINGGREENKY.GOV,City,Non-Federal Agency,Bowling Green,KY,36.99031886,-86.44359974
BOWMAR.GOV,City,Non-Federal Agency,Bow Mar,CO,39.62831777,-105.0499796
BOXBOROUGH-MA.GOV,City,Non-Federal Agency,Boxborough,MA,42.48342691,-71.51617887
BOYLSTON-MA.GOV,City,Non-Federal Agency,Boylston,MA,42.39175655,-71.70367723
BRADLEYBEACHNJ.GOV,City,Non-Federal Agency,Bradley Beach,NJ,40.20233633,-74.01207589
BRANFORD-CT.GOV,City,Non-Federal Agency,Branford,CT,41.27953624,-72.8150966
BRANSONMO.GOV,City,Non-Federal Agency,Branson,MO,36.64366962,-93.21850905
BRAWLEY-CA.GOV,City,Non-Federal Agency,Brawley,CA,32.97865935,-115.5302697
BRECKENRIDGETX.GOV,City,Non-Federal Agency,Breckenridge,TX,32.75567713,-98.90228768
BREMENGA.GOV,City,Non-Federal Agency,Bremen,GA,33.72121945,-85.14549643
BREMERTONWA.GOV,City,Non-Federal Agency,Bremerton,WA,47.56731878,-122.6326374
BRENTWOOD-TN.GOV,City,Non-Federal Agency,Brentwood,TN,36.0331188,-86.78277964
BRENTWOODCA.GOV,City,Non-Federal Agency,Brentwood,CA,37.92686575,-121.7257699
BRENTWOODMD.GOV,City,Non-Federal Agency,Brentwood,MD,38.94316807,-76.95663709
BRENTWOODNH.GOV,City,Non-Federal Agency,Brentwood,NH,42.97869796,-71.07283771
BRENTWOODTN.GOV,City,Non-Federal Agency,Brentwood,TN,36.0331188,-86.78277964
BREWSTER-MA.GOV,City,Non-Federal Agency,Brewster,MA,41.7601071,-70.08279956
BREWSTERVILLAGE-NY.GOV,City,Non-Federal Agency,Brewster,NY,41.39731779,-73.61706944
BRICKTOWNSHIP-NJ.GOV,City,Non-Federal Agency,Brick,NJ,40.1294878,-74.73570617
BRIDGEPORTCT.GOV,City,Non-Federal Agency,Bridgeport,CT,41.16703723,-73.20482952
BRIDGEPORTWV.GOV,City,Non-Federal Agency,Bridgeport,WV,39.2864786,-80.2561988
BRIDGEVIEW-IL.GOV,City,Non-Federal Agency,Bridgeview,IL,41.75002799,-87.804216
BRIDGEWATERNJ.GOV,City,Non-Federal Agency,Bridgewater,NJ,40.60078947,-74.64814844
BRIGHTONCO.GOV,City,Non-Federal Agency,Brighton,CO,39.9852576,-104.820527
BRIMFIELDOHIO.GOV,City,Non-Federal Agency,Kent,OH,41.15366891,-81.35788554
BRISTOLCT.GOV,City,Non-Federal Agency,Bristol,CT,41.67175744,-72.9492657
BRLA.GOV,City,Non-Federal Agency,Baton Rouge,LA,30.45074767,-91.1545467
BROADVIEW-IL.GOV,City,Non-Federal Agency,Broadview,IL,41.86391739,-87.85338764
BROKENARROWOK.GOV,City,Non-Federal Agency,Broken Arrow,OK,36.05259757,-95.79081829
BROOKFIELD-WI.GOV,City,Non-Federal Agency,Brookfield,WI,43.0605682,-88.10647668
BROOKFIELDCT.GOV,City,Non-Federal Agency,Brookfield,CT,41.48258973,-73.40956585
BROOKFIELDIL.GOV,City,Non-Federal Agency,Brookfield ,IL,41.82391594,-87.85172729
BROOKHAVENGA.GOV,City,Non-Federal Agency,Dunwoody,GA,33.94620849,-84.33464588
BROOKHAVENNY.GOV,City,Non-Federal Agency,Farmingville,NY,40.83120953,-73.02954757
BROOKLINEMA.GOV,City,Non-Federal Agency,Brookline,MA,42.33175887,-71.12115892
BROOKLYNOHIO.GOV,City,Non-Federal Agency,Brooklyn,OH,41.43976703,-81.73540653
BROOKLYNWI.GOV,City,Non-Federal Agency,Brooklyn,WI,42.85360906,-89.37039652
BROWNSVILLETN.GOV,City,Non-Federal Agency,Brownsville,TN,35.59396677,-89.26228912
BROWNWOODTEXAS.GOV,City,Non-Federal Agency,Brownwood,TX,31.70931748,-98.9911593
BRYANTX.GOV,City,Non-Federal Agency,Bryan,TX,30.67435982,-96.3699574
BRYCECANYONCITYUT.GOV,City,Non-Federal Agency,Bryce Canyon City,UT,37.6738892,-112.156937
BRYSONCITYNC.GOV,City,Non-Federal Agency,Bryson City,NC,35.43092824,-83.44737862
BUCHANAN-VA.GOV,City,Non-Federal Agency,BUCHANAN,VA,37.5273597,-79.67975945
BUCKEYEAZ.GOV,City,Non-Federal Agency,Buckeye,AZ,33.37031809,-112.5837781
BUCKSPORTMAINE.GOV,City,Non-Federal Agency,Bucksport,ME,44.57368943,-68.79558979
BUENAVISTACO.GOV,City,Non-Federal Agency,Buena Vista,CO,38.84221953,-106.1311257
BULLHEADCITYAZ.GOV,City,Non-Federal Agency,Bullhead City,AZ,35.14777736,-114.5682955
BULVERDETX.GOV,City,Non-Federal Agency,Bulverde,TX,29.7438289,-98.45306555
BUNKERHILLTX.GOV,City,Non-Federal Agency,HOUSTON,TX,29.76327617,-95.36326623
BURBANKCA.GOV,City,Non-Federal Agency,Burbank,CA,34.18083567,-118.3089666
BURBANKIL.GOV,City,Non-Federal Agency,Burbank,IL,41.73391942,-87.7794997
BURIENWA.GOV,City,Non-Federal Agency,Burien,WA,47.47037938,-122.3467868
BURKITTSVILLE-MD.GOV,City,Non-Federal Agency,Burkittsville,MD,39.39370859,-77.62887744
BURLINGTON-WI.GOV,City,Non-Federal Agency,Burlington,WI,42.67806614,-88.27619712
BURLINGTONKANSAS.GOV,City,Non-Federal Agency,Burlington,KS,38.19446601,-95.74275805
BURLINGTONNC.GOV,City,Non-Federal Agency,Burlington,NC,36.09568575,-79.43779792
BURLINGTONND.GOV,City,Non-Federal Agency,Burlington,ND,48.27528596,-101.4287775
BURLINGTONVT.GOV,City,Non-Federal Agency,Burlington,VT,44.47587711,-73.21206938
BURLINGTONWA.GOV,City,Non-Federal Agency,Burlington,WA,48.47565768,-122.3254362
BURNSHARBOR-IN.GOV,City,Non-Federal Agency,Burns Harbor,IN,41.62586601,-87.13336603
BURNSVILLEMN.GOV,City,Non-Federal Agency,Burnsville,MN,44.76773921,-93.27771929
BURR-RIDGE.GOV,City,Non-Federal Agency,Burr Ridge,IL,41.74891659,-87.91838887
BURRILLVILLE-RI.GOV,City,Non-Federal Agency,Harrisville,RI,41.96564886,-71.67450632
BURTONMI.GOV,City,Non-Federal Agency,Burton,MI,42.99946812,-83.61633863
BUTLERWI.GOV,City,Non-Federal Agency,Butler,WI,43.10583868,-88.06952596
BYESVILLEOH.GOV,City,Non-Federal Agency,Byesville,OH,39.96978797,-81.53650618
CABOTAR.GOV,City,Non-Federal Agency,Cabot,AR,34.97452924,-92.01652621
CABQ.GOV,City,Non-Federal Agency,Albuquerque,NM,35.08448598,-106.6511356
CALAISVERMONT.GOV,City,Non-Federal Agency,East Calais,VT,44.36644682,-72.42982729
CALDWELLTX.GOV,City,Non-Federal Agency,Caldwell,TX,30.53131752,-96.69302873
CALEDONIAMN.GOV,City,Non-Federal Agency,Caledonia,MN,43.63468575,-91.49680883
CALIFORNIACITY-CA.GOV,City,Non-Federal Agency,California City,CA,35.12579681,-117.9858997
CALUMETTWP-IN.GOV,City,Non-Federal Agency,Gary,IN,41.5933699,-87.34642662
CAMBRIDGEMA.GOV,City,Non-Federal Agency,Cambridge,MA,42.37509903,-71.1056083
CAMBRIDGENY.GOV,City,Non-Federal Agency,Cambridge,NY,43.02812608,-73.38121837
CAMDENMAINE.GOV,City,Non-Federal Agency,Camden,ME,44.20979772,-69.0647559
CAMDENTN.GOV,City,Non-Federal Agency,Camden,TN,36.05894651,-88.09781945
CAMPBELLCA.GOV,City,Non-Federal Agency,Campbell,CA,37.28716652,-121.949958
CAMPBELLOHIO.GOV,City,Non-Federal Agency,Campbell,OH,41.07838609,-80.59923936
CANALWINCHESTEROHIO.GOV,City,Non-Federal Agency,Canal Winchester,OH,39.84283623,-82.80461966
CANANDAIGUANEWYORK.GOV,City,Non-Federal Agency,Canandaigua,NY,42.87422623,-77.28803719
CANNONFALLSMN.GOV,City,Non-Federal Agency,Cannon Falls,MN,44.50690635,-92.90547633
CANTONOHIO.GOV,City,Non-Federal Agency,Canton,OH,40.79894739,-81.37844871
CANTONTWP-OH.GOV,City,Non-Federal Agency,Canton,OH,40.79894739,-81.37844871
CANTONTX.GOV,City,Non-Federal Agency,Canton,TX,32.55651581,-95.86329786
CAPECORALFL.GOV,City,Non-Federal Agency,Cape Coral,FL,26.56284967,-81.94952903
CARLISLEMA.GOV,City,Non-Federal Agency,Carlisle,MA,42.52925985,-71.34949566
CARLSBADCA.GOV,City,Non-Federal Agency,Carlsbad,CA,33.15808992,-117.3505876
CARNATIONWA.GOV,City,Non-Federal Agency,Carnation,WA,47.64787963,-121.9140062
CARNEGIEOK.GOV,City,Non-Federal Agency,Carnegie,OK,35.10366778,-98.60366718
CARNEYSPOINTNJ.GOV,City,Non-Federal Agency,Carneys Point,NJ,39.71121841,-75.4701985
CARRBORONC.GOV,City,Non-Federal Agency,Carrboro,NC,35.91013571,-79.07528759
CARROLLTON-GA.GOV,City,Non-Federal Agency,Carrollton,GA,33.58010747,-85.07660754
CARTERLAKE-IA.GOV,City,Non-Federal Agency,Carter Lake,IA,41.29054677,-95.918067
CARTERSVILLEGA.GOV,City,Non-Federal Agency,Cartersville,GA,34.16509606,-84.7999361
CARTHAGEMO.GOV,City,Non-Federal Agency,Carthage,MO,37.17644934,-94.31021567
CARVERMA.GOV,City,Non-Federal Agency,Carver,MA,41.88343666,-70.76253624
CARYNC.GOV,City,Non-Federal Agency,Cary,NC,35.79153974,-78.78111719
CASAGRANDEAZ.GOV,City,Non-Federal Agency,Casa Grande,AZ,32.87949715,-111.75735
CASPERWY.GOV,City,Non-Federal Agency,Casper,WY,42.86662641,-106.3130761
CASTROVILLETX.GOV,City,Non-Federal Agency,Castroville,TX,29.35578783,-98.87863778
CATHEDRALCITY.GOV,City,Non-Federal Agency,Cathedral City,CA,33.77973676,-116.4652867
CAVESPRINGSAR.GOV,City,Non-Federal Agency,Cave Springs,AR,36.26340836,-94.23186863
CECILTONMD.GOV,City,Non-Federal Agency,Cecilton ,MD,39.40399918,-75.86743675
CECILTOWNSHIP-PA.GOV,City,Non-Federal Agency,Cecil,PA,40.32950855,-80.17088637
CEDARHURST.GOV,City,Non-Federal Agency,cedarhurst,NY,40.62287801,-73.72429942
CEDARPARKTEXAS.GOV,City,Non-Federal Agency,Cedar Park,TX,30.50519734,-97.8202867
CEDARRAPIDS-IA.GOV,City,Non-Federal Agency,Cedar Rapids,IA,42.00832757,-91.64406726
CEDARTOWNGEORGIA.GOV,City,Non-Federal Agency,Cedartown,GA,34.05370845,-85.25494922
CELINA-TX.GOV,City,Non-Federal Agency,Celina,TX,33.32455715,-96.78443812
CENTENNIALCO.GOV,City,Non-Federal Agency,Centennial,CO,39.57915963,-104.876916
CENTERCO.GOV,City,Non-Federal Agency,Center,CO,37.75305968,-106.1086367
CENTERLINE.GOV,City,Non-Federal Agency,Center Line,MI,42.48503777,-83.02769636
CENTERVILLEOHIO.GOV,City,Non-Federal Agency,Centerville,OH,39.62838976,-84.15937744
CENTERVILLETX.GOV,City,Non-Federal Agency,College Station,TX,30.62797794,-96.33440605
CENTRAL-LA.GOV,City,Non-Federal Agency,Central,LA,30.55434647,-91.03676965
CENTRALPOINTOREGON.GOV,City,Non-Federal Agency,Central Point,OR,42.37595845,-122.9164272
CGAZ.GOV,City,Non-Federal Agency,Casa Grande,AZ,32.87949715,-111.75735
CHADDSFORDPA.GOV,City,Non-Federal Agency,Chadds Ford,PA,39.87177767,-75.59131875
CHAMBERSBURGPA.GOV,City,Non-Federal Agency,Chambersburg,PA,39.93758883,-77.66109908
CHAMBLEEGA.GOV,City,Non-Federal Agency,Chamblee,GA,33.89204679,-84.29880656
CHAMPAIGN-IL.GOV,City,Non-Federal Agency,Champaign,IL,40.11641646,-88.24337703
CHAMPAIGNIL.GOV,City,Non-Federal Agency,Champaign,IL,40.11641646,-88.24337703
CHANDLERAZ.GOV,City,Non-Federal Agency,Chandler,AZ,33.30615828,-111.8412495
CHARLESTON-SC.GOV,City,Non-Federal Agency,Charleston,SC,32.77656878,-79.93091816
CHARLESTONWV.GOV,City,Non-Federal Agency,Charleston,WV,38.34981922,-81.63261766
CHARLESTOWN-NH.GOV,City,Non-Federal Agency,Charlestown,NH,43.23868939,-72.42452676
CHARLOTTENC.GOV,City,Non-Federal Agency,Charlotte,NC,35.22708733,-80.84312671
CHARLOTTESVILLEVA.GOV,City,Non-Federal Agency,Charlottesville,VA,38.02930816,-78.47667871
CHATHAM-MA.GOV,City,Non-Federal Agency,Chatham,MA,41.68205703,-69.95973998
CHATHAM-VA.GOV,City,Non-Federal Agency,Chatham,VA,36.82568747,-79.39807994
CHATHAMTOWNSHIP-NJ.GOV,City,Non-Federal Agency,Chatham,NJ,40.74092954,-74.3837564
CHATSWORTHGA.GOV,City,Non-Federal Agency,Chatsworth,GA,34.76590975,-84.76993726
CHATTANOOGA.GOV,City,Non-Federal Agency,Chattanooga,TN,35.04562743,-85.30967786
CHELSEAMA.GOV,City,Non-Federal Agency,Chelsea,MA,42.39175655,-71.03282726
CHESAPEAKEBEACHMD.GOV,City,Non-Federal Agency,Chesapeake Beach,MD,38.68622737,-76.53467804
CHESAPEAKECITY-MD.GOV,City,Non-Federal Agency,Chesapeake City,MD,39.53094641,-75.80743907
CHESHIRE-MA.GOV,City,Non-Federal Agency,Cheshire,MA,42.56202594,-73.16287974
CHESTER-NY.GOV,City,Non-Federal Agency,Chester,NY,41.36258987,-74.27125739
CHESTERFIELD.GOV,City,Non-Federal Agency,Chesterfield,VA,37.21485793,-79.98392796
CHESTERVT.GOV,City,Non-Federal Agency,Chester,VT,43.26284775,-72.59508863
CHESTNUTHILLTWP-PA.GOV,City,Non-Federal Agency,Brodheadsville,PA,40.92453575,-75.39378628
CHEVERLY-MD.GOV,City,Non-Federal Agency,Cheverly,MD,38.9281664,-76.91580772
CHEVYCHASEVILLAGEMD.GOV,City,Non-Federal Agency,Chevy Chase,MD,38.97121858,-77.07636697
CHICAGO-IL.GOV,City,Non-Federal Agency,Chicago,IL,41.85002712,-87.65004618
CHICOCA.GOV,City,Non-Federal Agency,Chico,CA,39.72848788,-121.837477
CHICOPEEMA.GOV,City,Non-Federal Agency,Chicopee,MA,42.1725585,-72.59490864
CHILLICOTHEOH.GOV,City,Non-Federal Agency,Chillicothe,OH,39.33311697,-82.98239888
CHILMARKMA.GOV,City,Non-Federal Agency,Chilmark,MA,41.3431696,-70.74474932
CHINAGROVENC.GOV,City,Non-Federal Agency,China Grove,NC,35.56930896,-80.58172691
CHINCOTEAGUE-VA.GOV,City,Non-Federal Agency,Chincoteague,VA,37.93317869,-75.37880711
CHIPPEWAFALLS-WI.GOV,City,Non-Federal Agency,Chippewa Falls,WI,44.9369062,-91.39292655
CHOWANCOUNTY-NC.GOV,City,Non-Federal Agency,Edenton,NC,36.0579386,-76.60771556
CHULAVISTACA.GOV,City,Non-Federal Agency,Chula Vista,CA,32.64004639,-117.0841978
CHURCHHILLTN.GOV,City,Non-Federal Agency,Church Hill,TN,36.52231989,-82.71348924
CIBOLOTX.GOV,City,Non-Federal Agency,Cibolo,TX,29.56161757,-98.22695611
CINCINNATI-OH.GOV,City,Non-Federal Agency,Cincinnati,OH,39.16199715,-84.45688654
CINCINNATIOHIO.GOV,City,Non-Federal Agency,Cincinnati,OH,39.16199715,-84.45688654
CITYKANKAKEE-IL.GOV,City,Non-Federal Agency,KANKAKEE,IL,41.1200299,-87.86114945
CITYOFADAMS-WI.GOV,City,Non-Federal Agency,Adams,WI,43.95607873,-89.81817879
CITYOFAIKENSC.GOV,City,Non-Federal Agency,Aiken,SC,33.56041722,-81.71954994
CITYOFALAMEDACA.GOV,City,Non-Federal Agency,Alameda,CA,37.7652086,-122.2416356
CITYOFALBIONMI.GOV,City,Non-Federal Agency,albion,MI,42.24309874,-84.75302776
CITYOFALCOA-TN.GOV,City,Non-Federal Agency,Alcoa,TN,35.78952842,-83.97378691
CITYOFALGOODTN.GOV,City,Non-Federal Agency,Algood,TN,36.19588736,-85.44857604
CITYOFALMAGA.GOV,City,Non-Federal Agency,Alma,GA,31.53936757,-82.46235753
CITYOFAUBURNWA.GOV,City,Non-Federal Agency,Auburn,WA,47.30731835,-122.2284473
CITYOFBAKERLA.GOV,City,Non-Federal Agency,Baker ,LA,30.58823747,-91.16815799
CITYOFBELOITWI.GOV,City,Non-Federal Agency,Beloit,WI,42.5083457,-89.03177907
CITYOFBENTONHARBORMI.GOV,City,Non-Federal Agency,Benton Harbor,MI,42.11670945,-86.4541873
CITYOFBLUERIDGEGA.GOV,City,Non-Federal Agency,Blue Ridge,GA,34.86396955,-84.32408982
CITYOFBOWIEMD.GOV,City,Non-Federal Agency,Bowie,MD,38.9427766,-76.73027568
CITYOFBOWMANGA.GOV,City,Non-Federal Agency,Bowman,GA,34.20482754,-83.03069759
CITYOFBRUNSWICK-GA.GOV,City,Non-Federal Agency,Brunswick,GA,31.14994962,-81.49148768
CITYOFBURTON-TX.GOV,City,Non-Federal Agency,Burton,TX,32.29347815,-97.44445755
CITYOFCANALFULTON-OH.GOV,City,Non-Federal Agency,Canal Fulton,OH,40.88977633,-81.59761976
CITYOFCAYCE-SC.GOV,City,Non-Federal Agency,Cayce,SC,33.96570976,-81.07397873
CITYOFCHAMPAIGN-IL.GOV,City,Non-Federal Agency,Champaign,IL,40.11641646,-88.24337703
CITYOFCHAMPAIGNIL.GOV,City,Non-Federal Agency,Champaign,IL,40.11641646,-88.24337703
CITYOFCHETEK-WI.GOV,City,Non-Federal Agency,Chetek,WI,45.31412572,-91.65099665
CITYOFCHOTEAU-MT.GOV,City,Non-Federal Agency,Choteau,MT,47.81244803,-112.1836286
CITYOFCLAYTONGA.GOV,City,Non-Federal Agency,Clayton,GA,34.87814779,-83.40098773
CITYOFCODY-WY.GOV,City,Non-Federal Agency,Cody,WY,44.52633563,-109.0565276
CITYOFCONWAY-AR.GOV,City,Non-Federal Agency,Conway,AR,35.08869761,-92.44209845
CITYOFCOWETA-OK.GOV,City,Non-Federal Agency,Coweta,OK,35.95176602,-95.65080871
CITYOFCRISFIELD-MD.GOV,City,Non-Federal Agency,Crisfield,MD,37.98345723,-75.85381645
CITYOFCUDAHYCA.GOV,City,Non-Federal Agency,Cudahy,CA,33.96056671,-118.185349
CITYOFDALTON-GA.GOV,City,Non-Federal Agency,Dalton,GA,34.7697974,-84.97021898
CITYOFDOUGLASGA.GOV,City,Non-Federal Agency,Douglas,GA,31.50880628,-82.84986764
CITYOFDUNBARWV.GOV,City,Non-Federal Agency,Dunbar,WV,38.36064976,-81.73734586
CITYOFDUPONTWA.GOV,City,Non-Federal Agency,DuPont,WA,47.09675954,-122.631238
CITYOFEUDORAKS.GOV,City,Non-Federal Agency,Eudora,KS,38.94333905,-95.09857722
CITYOFFAIRFAX-MN.GOV,City,Non-Federal Agency,Fairfax,MN,44.52912988,-94.72081774
CITYOFFARGO-ND.GOV,City,Non-Federal Agency,Fargo,ND,46.87718802,-96.78979714
CITYOFFARMERSVILLE-CA.GOV,City,Non-Federal Agency,Farmersville,CA,36.29772682,-119.2067764
CITYOFFARMINGTON-AR.GOV,City,Non-Federal Agency,Farmington,AR,36.04201901,-94.24714927
CITYOFFOLKSTON-GA.GOV,City,Non-Federal Agency,Folkston,GA,30.83050947,-82.00983718
CITYOFGAFFNEY-SC.GOV,City,Non-Federal Agency,Gaffney,SC,35.07178811,-81.64981963
CITYOFGALENAPARK-TX.GOV,City,Non-Federal Agency,Galena Park,TX,29.73355631,-95.23020853
CITYOFGRAVETTE-AR.GOV,City,Non-Federal Agency,Gravette,AR,36.42201929,-94.45354595
CITYOFGROTON-CT.GOV,City,Non-Federal Agency,Groton,CT,41.35009898,-72.07840848
CITYOFGROVEOK.GOV,City,Non-Federal Agency,Grove,OK,36.59368806,-94.76911645
CITYOFGUNNISON-CO.GOV,City,Non-Federal Agency,Gunnison,CO,38.54581733,-106.9253187
CITYOFHAMPTON-GA.GOV,City,Non-Federal Agency,Hampton,GA,33.38705661,-84.28297697
CITYOFHARRISON-MI.GOV,City,Non-Federal Agency,Harrison,MI,44.01918563,-84.79946814
CITYOFHAYWARD-CA.GOV,City,Non-Federal Agency,Hayward,CA,37.66881815,-122.0807974
CITYOFHAYWARDWI.GOV,City,Non-Federal Agency,Hayward,WI,46.01300821,-91.48461941
CITYOFHIRAMGA.GOV,City,Non-Federal Agency,HIRAM,GA,33.87565925,-84.76215745
CITYOFHOKAH-MN.GOV,City,Non-Federal Agency,Hokah,MN,43.75940569,-91.34652666
CITYOFHOLYOKE-CO.GOV,City,Non-Federal Agency,Holyoke,CO,40.58443793,-102.3024065
CITYOFHOMER-AK.GOV,City,Non-Federal Agency,Homer,AK,59.64249675,-151.548327
CITYOFHONDO-TX.GOV,City,Non-Federal Agency,Hondo,TX,29.34745907,-99.14141896
CITYOFHOUSTON.GOV,City,Non-Federal Agency,Houston,TX,29.76327617,-95.36326623
CITYOFHUMBLE-TX.GOV,City,Non-Federal Agency,Humble,TX,29.99882577,-95.2621557
CITYOFHUMBLETX.GOV,City,Non-Federal Agency,Humble,TX,29.99882577,-95.2621557
CITYOFHUNTSVILLETX.GOV,City,Non-Federal Agency,Huntsville,TX,30.72352696,-95.55077809
CITYOFIRONDALEAL.GOV,City,Non-Federal Agency,Irondale,AL,33.5381577,-86.70720885
CITYOFKEYWEST-FL.GOV,City,Non-Federal Agency,Key West,FL,24.55569928,-81.78258935
CITYOFKINGMAN.GOV,City,Non-Federal Agency,Kingman,AZ,35.18943917,-114.0530057
CITYOFKINGSBURG-CA.GOV,City,Non-Federal Agency,Kingsburg,CA,36.51383814,-119.5540196
CITYOFLACRESCENT-MN.GOV,City,Non-Federal Agency,La Crescent,MN,43.8280156,-91.30402794
CITYOFLADUE-MO.GOV,City,Non-Federal Agency,Ladue,MO,38.6497671,-90.38066937
CITYOFLAGRANGEMO.GOV,City,Non-Federal Agency,LaGrange,MO,40.04281649,-91.49764575
CITYOFLAHABRA-CA.GOV,City,Non-Federal Agency,LA HABRA,CA,33.93195825,-117.9461683
CITYOFLAPORTEIN.GOV,City,Non-Federal Agency,La Porte,IN,29.66577882,-95.01936624
CITYOFLENEXA-KS.GOV,City,Non-Federal Agency,Lenexa,KS,38.95361614,-94.73356961
CITYOFLENEXAKS.GOV,City,Non-Federal Agency,Lenexa,KS,38.95361614,-94.73356961
CITYOFLINDALETX.GOV,City,Non-Federal Agency,LINDALE,TX,32.51569993,-95.40939613
CITYOFLISBON-IA.GOV,City,Non-Federal Agency,Lisbon,IA,41.92111631,-91.38544821
CITYOFLUBBOCKTX.GOV,City,Non-Federal Agency,Lubbock,TX,33.57785767,-101.8551687
CITYOFMARIONIL.GOV,City,Non-Federal Agency,Marion,IL,37.73060667,-88.93312982
CITYOFMARIONWI.GOV,City,Non-Federal Agency,MARION,WI,44.67080881,-88.88926772
CITYOFMCCAYSVILLEGA.GOV,City,Non-Federal Agency,McCaysville,GA,34.9861877,-84.37130863
CITYOFMENASHA-WI.GOV,City,Non-Federal Agency,Menasha,WI,44.20220689,-88.44649801
CITYOFMIDLANDMI.GOV,City,Non-Federal Agency,Midland,MI,43.61557595,-84.24720964
CITYOFMILLBROOK-AL.GOV,City,Non-Federal Agency,Millbrook,AL,32.47985611,-86.36191849
CITYOFMILLENGA.GOV,City,Non-Federal Agency,Millen,GA,32.80404784,-81.94927706
CITYOFMONONGAHELA-PA.GOV,City,Non-Federal Agency,Monongahela,PA,40.20312826,-79.92615758
CITYOFMORROWGA.GOV,City,Non-Federal Agency,Morrow,GA,33.5831672,-84.33936597
CITYOFMTVERNON-IA.GOV,City,Non-Federal Agency,Mount Vernon,IA,41.92194874,-91.41683743
CITYOFNANTICOKE-PA.GOV,City,Non-Federal Agency,Nanticoke,PA,41.20535583,-76.00491755
CITYOFNEWBURGH-NY.GOV,City,Non-Federal Agency,Newburgh,NY,41.50342738,-74.01041553
CITYOFNEWULM-MN.GOV,City,Non-Federal Agency,New Ulm,MN,44.31245611,-94.46052933
CITYOFNORMANDY.GOV,City,Non-Federal Agency,St. Louis,MO,38.6272691,-90.19788659
CITYOFNOVI-MI.GOV,City,Non-Federal Agency,Novi,MI,42.48058767,-83.47548762
CITYOFOLYMPIA-WA.GOV,City,Non-Federal Agency,Olympia,WA,47.03786876,-122.9006966
CITYOFOLYMPIAWA.GOV,City,Non-Federal Agency,Olympia,WA,47.03786876,-122.9006966
CITYOFOMAHA-NE.GOV,City,Non-Federal Agency,Omaha,NE,41.2586086,-95.93778875
CITYOFPACIFICWA.GOV,City,Non-Federal Agency,Pacific,WA,47.26454965,-122.2501173
CITYOFPARISTN.GOV,City,Non-Federal Agency,Paris,TN,36.30199694,-88.32670964
CITYOFPARMA-OH.GOV,City,Non-Federal Agency,Parma,OH,41.40476913,-81.72290664
CITYOFPASSAICNJ.GOV,City,Non-Federal Agency,Passaic,NJ,40.85676726,-74.12847606
CITYOFPATASKALAOHIO.GOV,City,Non-Federal Agency,Pataskala,OH,39.99561568,-82.67432922
CITYOFPATTERSONLA.GOV,City,Non-Federal Agency,Patterson,LA,29.69325789,-91.30204811
CITYOFPHOENIX.GOV,City,Non-Federal Agency,Phoenix,AZ,33.44837716,-112.0740363
CITYOFPIGEONFORGETN.GOV,City,Non-Federal Agency,Pigeon Forge,TN,35.78841701,-83.55432963
CITYOFPLAINVILLE-KS.GOV,City,Non-Federal Agency,Plainville,KS,39.2347287,-99.29815805
CITYOFPLATTSBURGH-NY.GOV,City,Non-Federal Agency,Plattsburgh,NY,44.69948926,-73.45290601
CITYOFPLEASANTONCA.GOV,City,Non-Federal Agency,Pleasanton,CA,37.66242872,-121.8746797
CITYOFPOCOMOKEMD.GOV,City,Non-Federal Agency,Pocomoke City,MD,38.07567655,-75.56797932
CITYOFPORTLANDTN.GOV,City,Non-Federal Agency,Portland,TN,36.58170562,-86.51637628
CITYOFREDMOND.GOV,City,Non-Federal Agency,Redmond,WA,47.67398631,-122.1215098
CITYOFROCHESTER.GOV,City,Non-Federal Agency,Rochester,NY,43.15477634,-77.61555862
CITYOFROCKHILLSC.GOV,City,Non-Federal Agency,Rock Hill,SC,34.92486714,-81.02507707
CITYOFROCKPORT-IN.GOV,City,Non-Federal Agency,Rockport,IN,37.88310714,-87.04943948
CITYOFSAFFORDAZ.GOV,City,Non-Federal Agency,Safford,AZ,32.83394769,-109.7075793
CITYOFSALEMNJ.GOV,City,Non-Federal Agency,Salem,NJ,39.57177579,-75.46713877
CITYOFSANTEECA.GOV,City,Non-Federal Agency,Santee,CA,32.83837979,-116.973917
CITYOFSARASOTAFL.GOV,City,Non-Federal Agency,Sarasota,FL,27.33642553,-82.53064797
CITYOFSEATTLE.GOV,City,Non-Federal Agency,Seattle,WA,47.60620883,-122.3320686
CITYOFSPARTANBURG-SC.GOV,City,Non-Federal Agency,Spartanburg,SC,34.94956995,-81.93204809
CITYOFSPENCEROK.GOV,City,Non-Federal Agency,Spencer,OK,35.52283708,-97.37725601
CITYOFSTMARYSPA.GOV,City,Non-Federal Agency,St. Marys,PA,41.42783858,-78.56085724
CITYOFSTOCKBRIDGE-GA.GOV,City,Non-Federal Agency,Stockbridge,GA,33.54427715,-84.23380983
CITYOFSUNRISEFL.GOV,City,Non-Federal Agency,Sunrise,FL,26.15766963,-80.28610764
CITYOFSUNRISEFLORIDA.GOV,City,Non-Federal Agency,Sunrise,FL,26.15766963,-80.28610764
CITYOFTITUSVILLEPA.GOV,City,Non-Federal Agency,Titusville,PA,41.62699991,-79.67365799
CITYOFTORRANCECA.GOV,City,Non-Federal Agency,Torrance,CA,33.83584678,-118.3406258
CITYOFTYLER-TX.GOV,City,Non-Federal Agency,Tyler,TX,32.35125752,-95.30105925
CITYOFTYLERTX.GOV,City,Non-Federal Agency,Tyler,TX,32.35125752,-95.30105925
CITYOFWARRENPA.GOV,City,Non-Federal Agency,Warren,PA,41.84394816,-79.1450359
CITYOFWASHINGTONGA.GOV,City,Non-Federal Agency,Washington,GA,33.73678807,-82.73930795
CITYOFWEATHERBYLAKE-MO.GOV,City,Non-Federal Agency,Weatherby Lake,MO,39.23777943,-94.69606993
CITYOFWESTONLAKES-TX.GOV,City,Non-Federal Agency,Fulshear,TX,29.68995968,-95.89967713
CITYOFWEYAUWEGA-WI.GOV,City,Non-Federal Agency,Weyauwega,WI,44.32136982,-88.93371927
CITYOFWHEATON-IL.GOV,City,Non-Federal Agency,Wheaton,IL,41.86613569,-88.10700763
CITYOFWOODBURYGA.GOV,City,Non-Federal Agency,Woodbury,GA,32.9837394,-84.58269987
CITYOFWORLANDWY.GOV,City,Non-Federal Agency,Worland,WY,44.01689984,-107.9553673
CITYOFYUKONOK.GOV,City,Non-Federal Agency,Yukon,OK,35.50671951,-97.76253882
CITYOLYMPIA-WA.GOV,City,Non-Federal Agency,Olympia,WA,47.03786876,-122.9006966
CITYOLYMPIAWA.GOV,City,Non-Federal Agency,Olympia,WA,47.03786876,-122.9006966
CLARKSTONGA.GOV,City,Non-Federal Agency,Clarkston,GA,33.80954661,-84.23963681
CLARKSVILLEAR.GOV,City,Non-Federal Agency,Clarksville,AR,35.47146964,-93.46656754
CLAYTONMO.GOV,City,Non-Federal Agency,Clayton,MO,38.64254974,-90.32372693
CLEARLAKE-WI.GOV,City,Non-Federal Agency,Clear Lake,WI,45.25190974,-92.2712981
CLEARLAKESHORES-TX.GOV,City,Non-Federal Agency,Clear Lake Shores,TX,29.54744832,-95.03214961
CLEVELAND-OH.GOV,City,Non-Federal Agency,Cleveland,OH,41.49949922,-81.69540958
CLEVELANDOHIO.GOV,City,Non-Federal Agency,Cleveland,OH,41.49949922,-81.69540958
CLEVELANDTN.GOV,City,Non-Federal Agency,Cleveland,TN,35.15951682,-84.87660929
CLEVELANDWI.GOV,City,Non-Federal Agency,Cleveland,WI,43.91498838,-87.74730955
CLEWISTON-FL.GOV,City,Non-Federal Agency,Clewiston,FL,26.75422669,-80.93367668
CLIFFSIDEPARKNJ.GOV,City,Non-Federal Agency,Cliffside Park,NJ,40.82148589,-73.98763856
CLIFTONAZ.GOV,City,Non-Federal Agency,Clifton,AZ,33.05089594,-109.2961764
CLIFTONFORGEVA.GOV,City,Non-Federal Agency,Clifton Forge,VA,37.81623857,-79.82448911
CLINTONMA.GOV,City,Non-Federal Agency,Clinton,MA,42.41675633,-71.68284858
CLINTONNJ.GOV,City,Non-Federal Agency,New Jersey,NJ,40.16705946,-74.4998686
CLINTONOK.GOV,City,Non-Federal Agency,Clinton,OK,35.51560622,-98.96730691
CLINTONTOWNSHIP-MI.GOV,City,Non-Federal Agency,Clinton Township,MI,44.81722582,-84.00527961
CMSDCA.GOV,City,Non-Federal Agency,Costa Mesa,CA,33.64112656,-117.9186667
COALCITY-IL.GOV,City,Non-Federal Agency,Coal City,IL,41.28780651,-88.28561928
COALRUNKY.GOV,City,Non-Federal Agency,Pikeville,KY,37.47926797,-82.51875552
COHOES-NY.GOV,City,Non-Federal Agency,Cohoes,NY,42.77423611,-73.70011857
COLCHESTERCT.GOV,City,Non-Federal Agency,Colchester,CT,41.57564597,-72.33202847
COLCHESTERVT.GOV,City,Non-Federal Agency,Colchester,VT,44.54393807,-73.14790957
COLDSPRINGKY.GOV,City,Non-Federal Agency,COLD SPRING,KY,39.0217266,-84.43993654
COLDSPRINGNY.GOV,City,Non-Federal Agency,Cold Spring ,NY,41.42008577,-73.95457999
COLFAX-CA.GOV,City,Non-Federal Agency,Colfax,CA,39.10072609,-120.9532784
COLLEGEDALETN.GOV,City,Non-Federal Agency,Collegedale,TN,35.05312826,-85.05022638
COLLEGEPARKMD.GOV,City,Non-Federal Agency,College Park,MD,38.98066774,-76.93691984
COLLEGEVILLE-PA.GOV,City,Non-Federal Agency,Collegeville,PA,40.18565631,-75.45156565
COLLIERVILLETN.GOV,City,Non-Federal Agency,Collierville,TN,35.04203675,-89.66452642
COLLINCOUNTYTEXAS.GOV,City,Non-Federal Agency,Mckinney,TX,33.19761892,-96.61526663
COLLINCOUNTYTX.GOV,City,Non-Federal Agency,McKinney,TX,33.19761892,-96.61526663
COLONIALHEIGHTSVA.GOV,City,Non-Federal Agency,Colonial Heights,VA,37.26803872,-77.40725861
COLORADOSPRINGS.GOV,City,Non-Federal Agency,Colorado Springs,CO,38.83387727,-104.8213594
COLRAIN-MA.GOV,City,Non-Federal Agency,Colrain,MA,42.67313908,-72.69675711
COLTONCA.GOV,City,Non-Federal Agency,Colton,CA,34.07389816,-117.3136459
COLUMBIAHEIGHTSMN.GOV,City,Non-Federal Agency,Columbia Heights,MN,45.04079748,-93.2629966
COLUMBIANAOHIO.GOV,City,Non-Federal Agency,Columbiana,OH,40.88838595,-80.69395595
COLUMBIASC.GOV,City,Non-Federal Agency,Columbia,SC,34.00070765,-81.0348097
COLUMBIATN.GOV,City,Non-Federal Agency,Columbia,TN,35.6150699,-87.03527924
COLUMBIATWP-OH.GOV,City,Non-Federal Agency,Columbia Station,OH,41.31310776,-81.94680678
COLUMBUS.GOV,City,Non-Federal Agency,Columbus,OH,39.96117573,-82.99878643
COLUMBUSOH.GOV,City,Non-Federal Agency,Columbus,OH,39.96117573,-82.99878643
COLUMBUSOHIO.GOV,City,Non-Federal Agency,Columbus,OH,39.96117573,-82.99878643
COMMERCIALPOINTOHIO.GOV,City,Non-Federal Agency,Commercial Point,OH,39.76839934,-83.05712825
COMO.GOV,City,Non-Federal Agency,Columbia,MO,38.95170831,-92.33406753
COMSTOCKMI.GOV,City,Non-Federal Agency,Kalamazoo,MI,42.29170793,-85.58722673
CONCORDMA.GOV,City,Non-Federal Agency,Concord,MA,42.46036646,-71.34894671
CONCORDNC.GOV,City,Non-Federal Agency,Concord,NC,35.40874971,-80.57950861
CONCORDNH.GOV,City,Non-Federal Agency,Concord,NH,43.2081371,-71.53756997
CONCRETEWA.GOV,City,Non-Federal Agency,Concrete,WA,48.53927753,-121.7462476
CONNEAUTOHIO.GOV,City,Non-Federal Agency,Conneaut,OH,41.94755597,-80.55423885
CONNERSVILLEIN.GOV,City,Non-Federal Agency,Connersville,IN,39.64115963,-85.14106882
CONOVERNC.GOV,City,Non-Federal Agency,Conover,NC,35.70651978,-81.21868589
CONYERSGA.GOV,City,Non-Federal Agency,Conyers,GA,33.66760671,-84.01768951
COOKEVILLE-TN.GOV,City,Non-Federal Agency,Cookeville,TN,36.16283779,-85.50163983
COONRAPIDSMN.GOV,City,Non-Federal Agency,Coon Rapids,MN,45.11996795,-93.28772641
COPPELLTX.GOV,City,Non-Federal Agency,Coppell,TX,32.95456848,-97.01500666
COPPERASCOVETX.GOV,City,Non-Federal Agency,Copperas Cove,TX,31.12405892,-97.90307935
COR.GOV,City,Non-Federal Agency,Richardson,TX,32.94817905,-96.72971847
CORALGABLES-FL.GOV,City,Non-Federal Agency,Coral Gables,FL,25.72148733,-80.26837922
CORALGABLESFL.GOV,City,Non-Federal Agency,Coral Gables,FL,25.72148733,-80.26837922
CORBIN-KY.GOV,City,Non-Federal Agency,Corbin,KY,36.94869755,-84.09687798
CORNINGAR.GOV,City,Non-Federal Agency,Corning,AR,36.40783655,-90.5798262
CORNWALLNY.GOV,City,Non-Federal Agency,Cornwall,NY,45.01566721,-74.72570806
CORONACA.GOV,City,Non-Federal Agency,Corona,CA,33.87528578,-117.566438
CORONADOCA.GOV,City,Non-Federal Agency,Coronado,CA,32.68588833,-117.18309
CORPUSCHRISTI-TX.GOV,City,Non-Federal Agency,Corpus Christi,TX,27.80057734,-97.39637931
CORRALESNM.GOV,City,Non-Federal Agency,Corales,NM,35.23781887,-106.6066885
CORRYPA.GOV,City,Non-Federal Agency,Corry,PA,41.92032888,-79.64032945
CORUNNA-MI.GOV,City,Non-Federal Agency,Corunna,MI,42.98196917,-84.11774713
CORVALLISOREGON.GOV,City,Non-Federal Agency,Corvallis,OR,44.56456874,-123.2620371
CORYDON-IN.GOV,City,Non-Federal Agency,Corydon,IN,38.21200995,-86.12191879
COSMOPOLISWA.GOV,City,Non-Federal Agency,Cosmopolis,WA,46.95536858,-123.7737766
COSPRINGS.GOV,City,Non-Federal Agency,Colorado Springs,CO,38.83387727,-104.8213594
COSTAMESACA.GOV,City,Non-Federal Agency,Costa Mesa,CA,33.64112656,-117.9186667
COTTAGECITYMD.GOV,City,Non-Federal Agency,Cottage City,MD,38.93816901,-76.94830833
COTTONWOODAZ.GOV,City,Non-Federal Agency,Cottonwood,AZ,34.73918662,-112.0098765
COVENTRYRI.GOV,City,Non-Federal Agency,Coventry,RI,41.70009592,-71.68283958
COVINACA.GOV,City,Non-Federal Agency,Covina,CA,34.09000673,-117.8903372
COVINGTON-OH.GOV,City,Non-Federal Agency,COVINGTON ,OH,40.11726688,-84.35383668
COVINGTONKY.GOV,City,Non-Federal Agency,Covington,KY,39.0836681,-84.50854645
COVINGTONWA.GOV,City,Non-Federal Agency,Covington,WA,47.35817734,-122.1221577
CRANBERRYISLES-ME.GOV,City,Non-Federal Agency,Islesford,ME,44.26202908,-68.23389563
CRAWFORDSVILLE-IN.GOV,City,Non-Federal Agency,Crawfordsville,IN,40.04114714,-86.87444551
CREDITRIVER-MN.GOV,City,Non-Federal Agency,Prior Lake,MN,44.71329854,-93.42272793
CRESTONIOWA.GOV,City,Non-Federal Agency,Creston,IA,41.05859685,-94.36134914
CRETE-NE.GOV,City,Non-Federal Agency,Crete,NE,40.62777808,-96.96141641
CREVECOEURMO.GOV,City,Non-Federal Agency,Creve Coeur,MO,38.66088562,-90.42261915
CROSSROADSTX.GOV,City,Non-Federal Agency,Crossroads,TX,31.56513678,-101.6073396
CROSSVILLETN.GOV,City,Non-Federal Agency,Crossville,TN,35.94895827,-85.02689596
CROTONONHUDSON-NY.GOV,City,Non-Federal Agency,Croton-On-Hudson,NY,41.20842905,-73.89124811
CRYSTALMN.GOV,City,Non-Federal Agency,Crystal,MN,45.03273869,-93.36022847
CUBAASSESSORIL.GOV,City,Non-Federal Agency,Barrington,IL,42.15390765,-88.13618754
CUBATWPIL.GOV,City,Non-Federal Agency,Barrington,IL,42.15390765,-88.13618754
CUDAHY-WI.GOV,City,Non-Federal Agency,Cudahy,WI,42.95973665,-87.86146892
CULPEPERVA.GOV,City,Non-Federal Agency,Culpeper,VA,38.47317577,-77.9966568
CUMBERLANDMD.GOV,City,Non-Federal Agency,Cumberland,MD,39.65286759,-78.76251584
CUMMINGTON-MA.GOV,City,Non-Federal Agency,Cummington,MA,42.46174784,-72.8939791
CUTLERBAY-FL.GOV,City,Non-Federal Agency,Cutler Bay,FL,25.57829654,-80.33769556
DACULAGA.GOV,City,Non-Federal Agency,Dacula,GA,33.98871622,-83.89795963
DAHLONEGA-GA.GOV,City,Non-Federal Agency,Dahlonega,GA,34.53258745,-83.98490992
DALHARTTX.GOV,City,Non-Federal Agency,Dalhart,TX,36.05947746,-102.5132488
DALLAS-GA.GOV,City,Non-Federal Agency,Dallas,GA,33.92370598,-84.84076997
DALLASCITYHALL-TX.GOV,City,Non-Federal Agency,Dallas,TX,32.7830572,-96.80666614
DALLASOR.GOV,City,Non-Federal Agency,Dallas,OR,44.91927676,-123.3170492
DALLASOREGON.GOV,City,Non-Federal Agency,Dallas,OR,44.91927676,-123.3170492
DALTON-MA.GOV,City,Non-Federal Agency,Dalton,MA,42.47369878,-73.16620945
DAMASCUSOREGON.GOV,City,Non-Federal Agency,Damascus,OR,45.41761654,-122.4589798
DANBURY-CT.GOV,City,Non-Federal Agency,Danbury,CT,41.39481601,-73.45400841
DANDRIDGETN.GOV,City,Non-Federal Agency,Dandridge,TN,36.01536788,-83.414887
DANIABEACHFL.GOV,City,Non-Federal Agency,DANIA BEACH,FL,26.05230698,-80.14392926
DANVERSMA.GOV,City,Non-Federal Agency,Danvers,MA,42.57508828,-70.93004738
DANVILLE-VA.GOV,City,Non-Federal Agency,Danville,VA,36.58596674,-79.39501572
DANVILLEVA.GOV,City,Non-Federal Agency,Danville,VA,36.58596674,-79.39501572
DARIENCT.GOV,City,Non-Federal Agency,Darien,CT,41.07870557,-73.46928905
DARIENIL.GOV,City,Non-Federal Agency,Darien,IL,41.75197632,-87.97394994
DAUGHERTYTOWNSHIP-PA.GOV,City,Non-Federal Agency,New Brighton,PA,40.73033748,-80.31005902
DAVIE-FL.GOV,City,Non-Federal Agency,Davie,FL,26.06286754,-80.23309785
DAWSONVILLE-GA.GOV,City,Non-Federal Agency,Dawsonville,GA,34.42120884,-84.11907901
DAYTON-ME.GOV,City,Non-Federal Agency,Dayton,ME,43.54971979,-70.57555984
DAYTONOHIO.GOV,City,Non-Federal Agency,Dayton,OH,39.75894568,-84.19160808
DECATUR-AL.GOV,City,Non-Federal Agency,Decatur,AL,34.60592645,-86.98333584
DECATURIL.GOV,City,Non-Federal Agency,Decatur,IL,39.84030746,-88.9547999
DECATURILLINOIS.GOV,City,Non-Federal Agency,Decatur,IL,39.84030746,-88.9547999
DECATURTX.GOV,City,Non-Federal Agency,Decatur,TX,33.23427716,-97.58613647
DEDHAM-MA.GOV,City,Non-Federal Agency,Dedham,MA,42.24176686,-71.16615943
DEERFIELDBEACHFL.GOV,City,Non-Federal Agency,Deerfield Beach,FL,26.31840886,-80.09976568
DEERFIELDMICHIGAN.GOV,City,Non-Federal Agency,Deerfield,MI,41.88893967,-83.77882821
DEERPARK-OH.GOV,City,Non-Federal Agency,Deer Park,OH,39.2053373,-84.39465706
DEERPARKTX.GOV,City,Non-Federal Agency,Deer Park,TX,29.70522682,-95.12381998
DEKORRA-WI.GOV,City,Non-Federal Agency,Poynette,WI,43.39025844,-89.40289714
DELAWARETOWNSHIPPA.GOV,City,Non-Federal Agency,Dingmans Ferry,PA,41.22008752,-74.87127914
DELRAYBEACHFL.GOV,City,Non-Federal Agency,Delray Beach,FL,26.46145567,-80.07281757
DELTA-CO.GOV,City,Non-Federal Agency,Delta,CO,38.7422069,-108.0689598
DELTAMI.GOV,City,Non-Federal Agency,Lansing,MI,42.73253831,-84.55552678
DELTONAFL.GOV,City,Non-Federal Agency,Deltona,FL,28.90053623,-81.2636684
DEMOPOLISAL.GOV,City,Non-Federal Agency,Demopolis,AL,32.51763926,-87.83639715
DENVERCO.GOV,City,Non-Federal Agency,Denver,CO,39.73914743,-104.9846994
DERBYCT.GOV,City,Non-Federal Agency,Derby,CT,41.3206491,-73.0889963
DESMOINESWA.GOV,City,Non-Federal Agency,Des Moines,WA,47.40176947,-122.3242888
DESOTOTEXAS.GOV,City,Non-Federal Agency,DeSoto,TX,32.58985785,-96.85694918
DETROITMI.GOV,City,Non-Federal Agency,Detroit,MI,42.3314259,-83.04574876
DEWITTAR.GOV,City,Non-Federal Agency,DeWitt,AR,34.29287573,-91.33789643
DEXTERMI.GOV,City,Non-Federal Agency,Dexter,MI,42.33836879,-83.88855997
DHAZ.GOV,City,Non-Federal Agency,Humboldt,AZ,34.50085627,-112.2373764
DIAMONDBARCA.GOV,City,Non-Federal Agency,Diamond Bar,CA,34.02861867,-117.8103388
DICKINSON-TX.GOV,City,Non-Federal Agency,Dickinson,TX,29.46078601,-95.05131791
DICKINSONTEXAS.GOV,City,Non-Federal Agency,Dickinson,TX,29.46078601,-95.05131791
DICKSONCITY-PA.GOV,City,Non-Federal Agency,Dickson City,PA,41.47146671,-75.6076883
DIGHTON-MA.GOV,City,Non-Federal Agency,Dighton,MA,41.81398982,-71.1203175
DISCOVERWAUKESHA-WI.GOV,City,Non-Federal Agency,Waukesha,WI,43.01167554,-88.23147559
DONALDOREGON.GOV,City,Non-Federal Agency,Donald,OR,45.22233837,-122.8392591
DONALDSONVILLE-LA.GOV,City,Non-Federal Agency,Donaldsonville,LA,30.1010297,-90.99287605
DORAL-FL.GOV,City,Non-Federal Agency,Doral,FL,25.81953813,-80.3553295
DORALPD-FL.GOV,City,Non-Federal Agency,Doral,FL,25.81953813,-80.3553295
DOUGLASAZ.GOV,City,Non-Federal Agency,Douglas,AZ,31.34454835,-109.5453372
DOUGLASVILLEGA.GOV,City,Non-Federal Agency,Douglasville,GA,33.75149727,-84.74770923
DREW-MS.GOV,City,Non-Federal Agency,Drew,MS,33.80955561,-90.52647893
DRUIDHILLSKY.GOV,City,Non-Federal Agency,Louisville,KY,38.2542387,-85.75940845
DUBLIN-CA.GOV,City,Non-Federal Agency,Dublin,CA,37.70214669,-121.9357887
DUBLINCA.GOV,City,Non-Federal Agency,Dublin,CA,37.70214669,-121.9357887
DUBLINOHIOUSA.GOV,City,Non-Federal Agency,Dublin,OH,40.09922798,-83.11407969
DUBOISPA.GOV,City,Non-Federal Agency,DuBois,PA,50.95861834,4.602405531
DULUTHMN.GOV,City,Non-Federal Agency,Duluth,MN,46.78326785,-92.10657672
DUMASTX.GOV,City,Non-Federal Agency,Dumas,TX,35.86558967,-101.9732382
DUMFRIESVA.GOV,City,Non-Federal Agency,Dumfries,VA,38.56761789,-77.32803864
DUMONTNJ.GOV,City,Non-Federal Agency,Dumont,NJ,40.94064882,-73.99680874
DUNCANOK.GOV,City,Non-Federal Agency,Duncan,OK,34.50229614,-97.95780799
DUNCANVILLETX.GOV,City,Non-Federal Agency,Duncanville,TX,32.65179935,-96.90833912
DUNDEEVILLAGEMI.GOV,City,Non-Federal Agency,Dundee,MI,41.9572661,-83.65965628
DUNELLEN-NJ.GOV,City,Non-Federal Agency,Dunellen,NJ,40.589266,-74.47181809
DUNMOREPA.GOV,City,Non-Federal Agency,Dunmore,PA,41.4197978,-75.6324091
DUNSTABLE-MA.GOV,City,Non-Federal Agency,Dunstable,MA,42.67508741,-71.48283683
DUNWOODYGA.GOV,City,Non-Federal Agency,Dunwoody,GA,33.94620849,-84.33464588
DUPONTWA.GOV,City,Non-Federal Agency,DuPont,WA,47.09675954,-122.631238
DURHAMNC.GOV,City,Non-Federal Agency,Durham,NC,35.99402627,-78.89861977
DUSHOREPA.GOV,City,Non-Federal Agency,Dushore,PA,41.52423803,-76.40076992
DUTCHESSNY.GOV,City,Non-Federal Agency,Poughkeepsie,NY,41.7003659,-73.92096797
DUVALLWA.GOV,City,Non-Federal Agency,Duvall,WA,47.74231725,-121.9856758
DYERSBURGTN.GOV,City,Non-Federal Agency,Dyersburg,TN,36.03451818,-89.38562767
EAGARAZ.GOV,City,Non-Federal Agency,Eagar,AZ,34.11115935,-109.2914788
EAGLE-WI.GOV,City,Non-Federal Agency,Eagle,WI,42.87945927,-88.47425604
EAGLELAKE-TX.GOV,City,Non-Federal Agency,Eagle Lake,TX,29.58967708,-96.33357812
EASTBOROUGH-KS.GOV,City,Non-Federal Agency,Eastborough,KS,37.68806744,-97.26365909
EASTCOVENTRY-PA.GOV,City,Non-Federal Agency,Pottstown,PA,40.24536601,-75.64962907
EASTHAMPTONCT.GOV,City,Non-Federal Agency,East Hampton,CT,41.57592944,-72.50258584
EASTHAMPTONNY.GOV,City,Non-Federal Agency,Amagansett,NY,40.97370738,-72.14368868
EASTHAMPTONVILLAGENY.GOV,City,Non-Federal Agency,East Hampton,NY,40.96342579,-72.18479704
EASTHARTFORDCT.GOV,City,Non-Federal Agency,East Hartford,CT,41.78231713,-72.61202962
EASTKINGSTONNH.GOV,City,Non-Federal Agency,East Kingston,NH,42.92563867,-71.01671869
EASTLANDTEXAS.GOV,City,Non-Federal Agency,Eastland,TX,32.40151806,-98.8175557
EASTLONGMEADOWMA.GOV,City,Non-Federal Agency,East Longmeadow,MA,42.06453658,-72.51258845
EASTMOUNTAINTX.GOV,City,Non-Federal Agency,East Mountain,TX,32.5937455,-94.85548629
EASTON-PA.GOV,City,Non-Federal Agency,Easton,PA,40.6884282,-75.22072713
EASTONCT.GOV,City,Non-Federal Agency,Easton,CT,41.25286711,-73.29733681
EASTONMD.GOV,City,Non-Federal Agency,Easton,MD,38.77427556,-76.07632621
EASTORANGE-NJ.GOV,City,Non-Federal Agency,East ORange,NJ,40.7673197,-74.20486578
EASTPALESTINE-OH.GOV,City,Non-Federal Agency,East Palestine,OH,40.83394978,-80.54034858
EASTPORT-ME.GOV,City,Non-Federal Agency,Eastport,ME,44.90618742,-66.98997651
EASTRIDGETN.GOV,City,Non-Federal Agency,East Ridge,TN,35.01423821,-85.25189849
EASTTROYWI.GOV,City,Non-Federal Agency,East Troy,WI,42.78528713,-88.40509718
EASTVALECA.GOV,City,Non-Federal Agency,Eastvale,CA,33.96357695,-117.5641792
EASTWINDSOR-CT.GOV,City,Non-Federal Agency,Broad Brook,CT,41.91231959,-72.54508906
EATONVILLE-WA.GOV,City,Non-Federal Agency,Eatonville,WA,46.8673294,-122.2664959
EAUCLAIREVILLAGE-MI.GOV,City,Non-Federal Agency,Eau Claire,MI,41.98504664,-86.29973851
EAUCLAIREWI.GOV,City,Non-Federal Agency,Eau Claire,WI,44.81134934,-91.49848718
ECORSEMI.GOV,City,Non-Federal Agency,ECORSE,MI,42.24447562,-83.14575688
EDDINGTONMAINE.GOV,City,Non-Federal Agency,Eddington,ME,44.82617552,-68.69336786
EDENNY.GOV,City,Non-Federal Agency,Eden,NY,41.28870643,-74.49432959
EDGEWATERFL.GOV,City,Non-Federal Agency,Edgewater,FL,28.98887689,-80.90227847
EDGEWOOD-FL.GOV,City,Non-Federal Agency,Edgewood,FL,28.4861185,-81.37228876
EDGEWOOD-NM.GOV,City,Non-Federal Agency,Edgewood,NM,35.06143902,-106.1914069
EDINAMN.GOV,City,Non-Federal Agency,Edina,MN,44.88968739,-93.34994689
EDMONDS-WA.GOV,City,Non-Federal Agency,Edmonds,WA,47.81064819,-122.3773571
EDMONDSWA.GOV,City,Non-Federal Agency,Edmonds,WA,47.81064819,-122.3773571
EDMONSTONMD.GOV,City,Non-Federal Agency,Edmonston,MD,38.94677675,-76.93108836
EHALERTCT.GOV,City,Non-Federal Agency,East Hartford,CT,41.78231713,-72.61202962
EHAMPTONNY.GOV,City,Non-Federal Agency,East Hampton,NY,40.96342579,-72.18479704
ELKHARTLAKEWI.GOV,City,Non-Federal Agency,Elkhart Lake,WI,43.83332963,-88.01786604
ELKOCITYNV.GOV,City,Non-Federal Agency,Elko,NV,40.83241992,-115.7631195
ELKRIVERMN.GOV,City,Non-Federal Agency,Elk River,MN,45.30384864,-93.56717861
ELKTONVA.GOV,City,Non-Federal Agency,Elkton,VA,38.40789557,-78.62362667
ELKTOWNSHIPNJ.GOV,City,Non-Federal Agency,Monroeville,NJ,39.62899721,-75.15934808
ELLAGO-TX.GOV,City,Non-Federal Agency,El Lago,TX,29.5635569,-95.04520745
ELLIJAY-GA.GOV,City,Non-Federal Agency,Ellijay,GA,34.69480706,-84.4821473
ELLINGTON-CT.GOV,City,Non-Federal Agency,Ellington,CT,41.90398633,-72.46980624
ELLSWORTHMAINE.GOV,City,Non-Federal Agency,Ellsworth,ME,44.54340712,-68.41945916
ELMIRAGE-AZ.GOV,City,Non-Federal Agency,El Mirage,AZ,33.61308955,-112.3245966
ELMIRAGEAZ.GOV,City,Non-Federal Agency,El Mirage,AZ,33.61308955,-112.3245966
ELMONTECA.GOV,City,Non-Federal Agency,El Monte,CA,34.06861563,-118.027566
ELMWOODPLACE-OH.GOV,City,Non-Federal Agency,Cincinnati,OH,39.16199715,-84.45688654
ELOYAZ.GOV,City,Non-Federal Agency,Eloy,AZ,32.75589761,-111.5548364
ELPASOTEXAS.GOV,City,Non-Federal Agency,El Paso,TX,31.7587186,-106.4869271
EMERALDBAY-TX.GOV,City,Non-Federal Agency,Bullard,TX,32.13987978,-95.32022755
EMMITSBURGMD.GOV,City,Non-Federal Agency,Emmitsburg,MD,39.70453651,-77.32692723
EMPORIA-KANSAS.GOV,City,Non-Federal Agency,Emporia,KS,38.40389992,-96.18165811
ENCINITASCA.GOV,City,Non-Federal Agency,Encinitas,CA,33.03698767,-117.2919758
ENCINITASCALIFORNIA.GOV,City,Non-Federal Agency,Encinitas,CA,33.03698767,-117.2919758
ENFIELD-CT.GOV,City,Non-Federal Agency,Enfield,CT,41.97620942,-72.59175892
ENGLEWOODCO.GOV,City,Non-Federal Agency,Englewood,CO,39.64776954,-104.9877592
ENNISTX.GOV,City,Non-Federal Agency,Ennis,TX,32.32930847,-96.62526924
ENON-OH.GOV,City,Non-Federal Agency,Enon,OH,39.8781176,-83.93687668
ENTERPRISEAL.GOV,City,Non-Federal Agency,Enterprise,AL,31.31516596,-85.85521845
ERIECO.GOV,City,Non-Federal Agency,Erie,CO,40.05025883,-105.0499796
ESPANOLANM.GOV,City,Non-Federal Agency,Espanola,NM,35.99112853,-106.0805772
ESSEXCT.GOV,City,Non-Federal Agency,Essex,CT,41.35342869,-72.39063577
ESTERO-FL.GOV,City,Non-Federal Agency,Estero,FL,26.43813874,-81.8067477
ETON-GA.GOV,City,Non-Federal Agency,Eton,GA,34.8250795,-84.76326885
EUGENE-OR.GOV,City,Non-Federal Agency,Eugene,OR,44.05206872,-123.0867461
EULESSTX.GOV,City,Non-Federal Agency,Euless,TX,32.83706591,-97.08194722
EUREKA-MT.GOV,City,Non-Federal Agency,Eureka,MT,48.8799558,-115.0534965
EUREKASPRINGSAR.GOV,City,Non-Federal Agency,Eureka Springs,AR,36.40117714,-93.73796995
EVANSCOLORADO.GOV,City,Non-Federal Agency,Evans,CO,40.37636739,-104.6921894
EVERETTWA.GOV,City,Non-Federal Agency,Everett,WA,47.97897825,-122.2020796
EVESHAM-NJ.GOV,City,Non-Federal Agency,Marlton,NJ,39.89121594,-74.92182766
EXETERNH.GOV,City,Non-Federal Agency,Exeter,NH,42.98147872,-70.9478298
FABIUS-NY.GOV,City,Non-Federal Agency,Fabius,NY,42.83506621,-75.98602822
FAIRFAX-VT.GOV,City,Non-Federal Agency,Fairfax,VT,44.6653283,-73.00874592
FAIRFAXVA.GOV,City,Non-Federal Agency,Fairfax,VA,38.84621967,-77.30636856
FAIRFIELDOH.GOV,City,Non-Federal Agency,Fairfield,OH,39.34588683,-84.56049884
FAIRHOPE-AL.GOV,City,Non-Federal Agency,Fairhope,AL,30.52296626,-87.90332871
FAIRMONTWV.GOV,City,Non-Federal Agency,Fairmont,WV,39.48507748,-80.14257938
FAIRMOUNTHEIGHTSMD.GOV,City,Non-Federal Agency,Fairmount Heights,MD,38.90094831,-76.91552874
FAIRVIEWNC.GOV,City,Non-Federal Agency,Monroe,NC,34.98542727,-80.54950977
FAIRVIEWOREGON.GOV,City,Non-Federal Agency,Fairview,OR,45.53844882,-122.4339755
FALLCREEKWI.GOV,City,Non-Federal Agency,Fall Creek,WI,44.76356808,-91.27709783
FALLONNEVADA.GOV,City,Non-Federal Agency,Fallon,NV,39.47352701,-118.777366
FALLSCHURCHCITYVA.GOV,City,Non-Federal Agency,Falls Church,VA,38.88232897,-77.17108806
FALLSCHURCHVA.GOV,City,Non-Federal Agency,Falls Church,VA,38.88232897,-77.17108806
FALLSCITYOREGON.GOV,City,Non-Federal Agency,Falls City,OR,44.86622647,-123.4359376
FARGO-ND.GOV,City,Non-Federal Agency,Fargo,ND,46.87718802,-96.78979714
FARGOND.GOV,City,Non-Federal Agency,Fargo,ND,46.87718802,-96.78979714
FARMERSBRANCHTX.GOV,City,Non-Federal Agency,Farmers Branch,TX,32.92650897,-96.89611821
FARMINGTON-MO.GOV,City,Non-Federal Agency,Farmington,MO,37.78087621,-90.42178672
FARMVILLENC.GOV,City,Non-Federal Agency,Farmville,NC,35.57070833,-79.22001725
FARRAGUT-TN.GOV,City,Non-Federal Agency,Farragut,TN,35.88451949,-84.15352796
FAYETTEVILLE-AR.GOV,City,Non-Federal Agency,Fayetteville,AR,36.06257769,-94.15742723
FAYETTEVILLEFIRST-AR.GOV,City,Non-Federal Agency,Fayetteville,AR,36.06257769,-94.15742723
FAYETTEVILLENC.GOV,City,Non-Federal Agency,Fayetteville,NC,35.0526558,-78.87835806
FAYETTEVILLENY.GOV,City,Non-Federal Agency,Fayetteville,NY,43.02978643,-76.0043596
FEDERALWAYWA.GOV,City,Non-Federal Agency,Federal Way ,WA,47.32231552,-122.3126168
FERNDALEMI.GOV,City,Non-Federal Agency,Ferndale,MI,42.46058694,-83.13464737
FERRISTEXAS.GOV,City,Non-Federal Agency,Ferris,TX,32.5340268,-96.66554967
FIRESTONECO.GOV,City,Non-Federal Agency,Firestone,CO,40.11247931,-104.9366392
FISHKILL-NY.GOV,City,Non-Federal Agency,Fishkill,NY,41.53564902,-73.89902792
FITCHBURGMA.GOV,City,Non-Federal Agency,Fitchburg,MA,42.58341704,-71.80229948
FITCHBURGWI.GOV,City,Non-Federal Agency,Fitchburg,WI,42.96082555,-89.4698377
FITZWILLIAM-NH.GOV,City,Non-Federal Agency,Fitzwilliam,NH,42.78063904,-72.14174936
FLAGSTAFFAZ.GOV,City,Non-Federal Agency,Flagstaff,AZ,35.1980694,-111.6512674
FLATONIATX.GOV,City,Non-Federal Agency,Flatonia,TX,29.68772788,-97.10859835
FLORENCE-KY.GOV,City,Non-Federal Agency,Florence,KY,38.99894962,-84.62660698
FLORENCE-NJ.GOV,City,Non-Federal Agency,Florence,NJ,39.73427887,-74.91821898
FLORENCEAZ.GOV,City,Non-Federal Agency,Florence,AZ,33.03144866,-111.3873388
FLORESVILLETX.GOV,City,Non-Federal Agency,Floresville,TX,29.13357955,-98.1561189
FLORIDACITYFL.GOV,City,Non-Federal Agency,Florida City,FL,25.44788911,-80.47921701
FORESTGROVE-OR.GOV,City,Non-Federal Agency,FOREST GROVE,OR,45.51983847,-123.110657
FORESTHEIGHTSMD.GOV,City,Non-Federal Agency,Forest Heights,MD,38.80955692,-76.99802892
FORESTPARKOK.GOV,City,Non-Federal Agency,Forest Park,OK,35.50422673,-97.4461494
FORSYTH-IL.GOV,City,Non-Federal Agency,Forsyth,IL,39.93253577,-88.95118672
FORTCOLLINS-CO.GOV,City,Non-Federal Agency,Fort Collins,CO,40.58525685,-105.0844196
FORTLUPTON-CO.GOV,City,Non-Federal Agency,Fort Lupton,CO,40.08470777,-104.8130262
FORTLUPTONCO.GOV,City,Non-Federal Agency,Fort Lupton,CO,40.08470777,-104.8130262
FORTMADISON-IA.GOV,City,Non-Federal Agency,Fort Madison,IA,40.6297579,-91.31514645
FORTMILLSC.GOV,City,Non-Federal Agency,Fort Mill,SC,35.00736732,-80.94507867
FORTMYERSBEACHFL.GOV,City,Non-Federal Agency,Fort Myers Beach,FL,26.45201551,-81.94813866
FORTSMITHAR.GOV,City,Non-Federal Agency,Fort Smith,AR,35.38591873,-94.39854733
FORTWORTH-TEXAS.GOV,City,Non-Federal Agency,Fort Worth,TX,32.72540832,-97.32084902
FORTWORTH-TX.GOV,City,Non-Federal Agency,Fort Worth,TX,32.72540832,-97.32084902
FORTWORTHTEXAS.GOV,City,Non-Federal Agency,Fort Worth,TX,32.72540832,-97.32084902
FOSTORIAOHIO.GOV,City,Non-Federal Agency,Fostoria,OH,41.15699862,-83.41686683
FOXBOROUGHMA.GOV,City,Non-Federal Agency,Foxborough,MA,42.06537801,-71.24782718
FRAMINGHAMMA.GOV,City,Non-Federal Agency,Framingham,MA,42.27925753,-71.41616624
FRANCESTOWN-NH.GOV,City,Non-Federal Agency,Francestown,NH,42.98757568,-71.81257657
FRANKFORT-IN.GOV,City,Non-Federal Agency,Frankfort,IN,40.27947749,-86.51083727
FRANKLIN-NJ.GOV,City,Non-Federal Agency,Someret,NJ,40.49759563,-74.48848911
FRANKLIN-TN.GOV,City,Non-Federal Agency,Franklin,TN,35.92505639,-86.8688885
FRANKLINNJ.GOV,City,Non-Federal Agency,Somerset,NJ,40.49759563,-74.48848911
FRANKLINPA.GOV,City,Non-Federal Agency,Franklin,PA,41.39783975,-79.83143649
FRANKLINTN.GOV,City,Non-Federal Agency,Franklin,TN,35.92505639,-86.8688885
FRANKLINWI.GOV,City,Non-Federal Agency,Franklin,WI,42.88862946,-88.03841572
FREDENBERGTWP-MN.GOV,City,Non-Federal Agency,Duluth,MN,46.78326785,-92.10657672
FREDERICKCO.GOV,City,Non-Federal Agency,Frederick,CO,40.09914699,-104.9371972
FREDERICKOK.GOV,City,Non-Federal Agency,Frederick,OK,34.39202893,-99.01840888
FREDERICKSBURGVA.GOV,City,Non-Federal Agency,Fredericksburg,VA,38.30317636,-77.46053838
FREEHOLDBOROUGHNJ.GOV,City,Non-Federal Agency,Freehold,NJ,40.26010671,-74.27375917
FREEPORTNY.GOV,City,Non-Federal Agency,Freeport,NY,40.65759693,-73.58317845
FREETOWNMA.GOV,City,Non-Federal Agency,Assonet,MA,41.79593742,-71.06781615
FREMONT.GOV,City,Non-Federal Agency,Fremont,CA,37.54826935,-121.9885691
FREMONTNC.GOV,City,Non-Federal Agency,Fremont,NC,35.54543858,-77.97470775
FREMONTNE.GOV,City,Non-Federal Agency,Fremont,NE,41.4333281,-96.49807903
FRENCHSETTLEMENT-LA.GOV,City,Non-Federal Agency,French Settlement,LA,30.29519647,-90.7950961
FRESNO.GOV,City,Non-Federal Agency,Fresno,CA,36.74772739,-119.7723672
FRIDLEYMN.GOV,City,Non-Federal Agency,Fridley,MN,45.08607696,-93.26327558
FRIENDSHIPHEIGHTSMD.GOV,City,Non-Federal Agency,Chevy Chase,MD,38.97121858,-77.07636697
FRISCOTEXAS.GOV,City,Non-Federal Agency,Frisco,TX,33.15066558,-96.82360714
FRISCOTX.GOV,City,Non-Federal Agency,Frisco,TX,33.15066558,-96.82360714
FROMBERG-MT.GOV,City,Non-Federal Agency,Fromberg,MT,45.3921668,-108.9065289
FRONTROYAL-VA.GOV,City,Non-Federal Agency,Front Royal,VA,38.91816829,-78.19443675
FRONTROYALVA.GOV,City,Non-Federal Agency,Front Royal,VA,38.91816829,-78.19443675
FRUITPORTTOWNSHIP-MI.GOV,City,Non-Federal Agency,Fruitport,MI,43.13195886,-86.15477937
FULSHEARTEXAS.GOV,City,Non-Federal Agency,Fulshear,TX,29.68995968,-95.89967713
GAHANNA.GOV,City,Non-Federal Agency,Gahanna,OH,40.01922958,-82.87933553
GALENAKS.GOV,City,Non-Federal Agency,GALENA,KS,37.07589677,-94.63966744
GALENAOHIO.GOV,City,Non-Federal Agency,Galena,OH,40.2150567,-82.87989798
GALESBURG-IL.GOV,City,Non-Federal Agency,Galesburg,IL,40.94781668,-90.37123821
GALLATIN-TN.GOV,City,Non-Federal Agency,Gallatin,TN,36.38837578,-86.44665947
GALLAWAYTN.GOV,City,Non-Federal Agency,Gallaway,TN,35.32591656,-89.61618721
GALLOWAYTWP-NJ.GOV,City,Non-Federal Agency,Galloway,NJ,39.48787623,-74.47597572
GALLUPNM.GOV,City,Non-Federal Agency,GALLUP,NM,35.52807912,-108.742577
GALVAIL.GOV,City,Non-Federal Agency,Galva,IL,41.16753668,-90.04260987
GALVESTONTX.GOV,City,Non-Federal Agency,Galveston,TX,29.30134716,-94.79769792
GARDENCITY-GA.GOV,City,Non-Federal Agency,Garden City,GA,32.11436704,-81.15399963
GARDNERKANSAS.GOV,City,Non-Federal Agency,Gardner,KS,38.81083931,-94.92718742
GARDNERVILLE-NV.GOV,City,Non-Federal Agency,Gardnerville,NV,38.94129623,-119.7496172
GARLANDTX.GOV,City,Non-Federal Agency,Garland,TX,32.91261871,-96.63887603
GARNERNC.GOV,City,Non-Federal Agency,Garner,NC,35.71125786,-78.61416851
GARRETTPARK-MD.GOV,City,Non-Federal Agency,Garrett Park,MD,39.03815914,-77.09302899
GARRETTPARKMD.GOV,City,Non-Federal Agency,Garrett Park,MD,39.03815914,-77.09302899
GATLINBURGTN.GOV,City,Non-Federal Agency,Gatlinburg,TN,35.71425909,-83.51015705
GAUTIER-MS.GOV,City,Non-Federal Agency,Gautier,MS,30.38575993,-88.61168735
GENEVAOHIO.GOV,City,Non-Federal Agency,Geneva,OH,39.66200628,-82.43348809
GEORGETOWN-MI.GOV,City,Non-Federal Agency,Jenison,MI,42.9072488,-85.79197656
GEORGETOWNKY.GOV,City,Non-Federal Agency,Georgetown,KY,38.20979615,-84.55882949
GEORGETOWNTX.GOV,City,Non-Federal Agency,Georgetown,TX,30.63268902,-97.67722639
GERMANTOWN-TN.GOV,City,Non-Federal Agency,Germantown,TN,35.08675828,-89.8100885
GETTYSBURG-PA.GOV,City,Non-Federal Agency,Gettysburg,PA,39.83092579,-77.23109924
GILBERTAZ.GOV,City,Non-Federal Agency,Gilbert,AZ,33.35282814,-111.7890271
GILLETTEWY.GOV,City,Non-Federal Agency,Gillette,WY,44.29108751,-105.5022165
GIRARDKANSAS.GOV,City,Non-Federal Agency,Girard,KS,37.51115664,-94.83801884
GLASTONBURY-CT.GOV,City,Non-Federal Agency,Glastonbury,CT,41.71231684,-72.60814647
GLENDALE-WI.GOV,City,Non-Federal Agency,Glendale,WI,43.13528857,-87.93563584
GLENDALEAZ.GOV,City,Non-Federal Agency,Glendale,AZ,33.53864815,-112.1859864
GLENDALECA.GOV,City,Non-Federal Agency,Glendale,CA,34.14250807,-118.2550794
GLENNHEIGHTSTX.GOV,City,Non-Federal Agency,Glenn Heights,TX,32.5487495,-96.85666571
GLENVIEWKY.GOV,City,Non-Federal Agency,Glenview,KY,38.3083959,-85.65023914
GLENWILLOW-OH.GOV,City,Non-Federal Agency,Glenwillow,OH,41.36171695,-81.46955663
GLENWOODSPRINGSCO.GOV,City,Non-Federal Agency,Glenwood Springs,CO,39.55053767,-107.3247798
GLOBEAZ.GOV,City,Non-Federal Agency,GLOBE,AZ,33.39421997,-110.7864981
GLOUCESTER-MA.GOV,City,Non-Federal Agency,Gloucester,MA,42.61592666,-70.66198817
GODDARDKS.GOV,City,Non-Federal Agency,Goddard,KS,37.65973796,-97.57532843
GODLEYTX.GOV,City,Non-Federal Agency,Godley,TX,32.44902934,-97.52668775
GOFFSTOWNNH.GOV,City,Non-Federal Agency,Goffstown,NH,43.02035977,-71.6003484
GOLDBEACHOREGON.GOV,City,Non-Federal Agency,GoldBeach,OR,42.40732967,-124.4217686
GOLDENVALLEYMN.GOV,City,Non-Federal Agency,Golden Valley,MN,45.00968724,-93.34911896
GOLDSBORONC.GOV,City,Non-Federal Agency,Goldsboro,NC,35.38487932,-77.99276915
GOODLETTSVILLE-TN.GOV,City,Non-Federal Agency,Goodlettsville,TN,36.32310907,-86.7133283
GOODYEARAZ.GOV,City,Non-Federal Agency,Goodyear,AZ,35.21768766,-114.0151776
GOSHEN-OH.GOV,City,Non-Federal Agency,Goshen,OH,39.23338781,-84.16131676
GOSHENCT.GOV,City,Non-Federal Agency,Goshen,CT,41.83175874,-73.22510922
GPSHORESMI.GOV,City,Non-Federal Agency,Grosse Pointe Shores,MI,42.43669856,-82.87685625
GRAFTON-MA.GOV,City,Non-Federal Agency,Grafton,MA,42.20703894,-71.68561583
GRANBY-CT.GOV,City,Non-Federal Agency,Granby,CT,41.95398589,-72.78870645
GRANBY-MA.GOV,City,Non-Federal Agency,Granby,MA,42.25647605,-72.51619713
GRANDTERRACE-CA.GOV,City,Non-Federal Agency,Grand Terrace,CA,34.03389671,-117.3136459
GRANDVIEW-IN.GOV,City,Non-Federal Agency,Grandview,IN,39.87031979,-86.19581573
GRANGERIOWA.GOV,City,Non-Federal Agency,Granger,IA,41.76109701,-93.82438928
GRANITEFALLSWA.GOV,City,Non-Federal Agency,Granite Falls,WA,48.08398993,-121.9687393
GRANITEQUARRYNC.GOV,City,Non-Federal Agency,Granite Quarry ,NC,35.61235664,-80.44672989
GRANTFORKIL.GOV,City,Non-Federal Agency,Highland,IL,38.73948914,-89.67119933
GRANTSPASSOREGON.GOV,City,Non-Federal Agency,Grants Pass,OR,42.43900686,-123.3283882
GRANTSVILLEUT.GOV,City,Non-Federal Agency,Grantsville,UT,40.59993905,-112.4643992
GRAPEVINETEXAS.GOV,City,Non-Federal Agency,Grapevine,TX,32.93428878,-97.07806856
GRAPEVINETX.GOV,City,Non-Federal Agency,Grapevine,TX,32.93428878,-97.07806856
GREECENY.GOV,City,Non-Federal Agency,Rochester,NY,43.15477634,-77.61555862
GREENBAYWI.GOV,City,Non-Federal Agency,Green Bay,WI,44.51915877,-88.01982787
GREENBELTMD.GOV,City,Non-Federal Agency,Greenbelt,MD,39.00454712,-76.87552729
GREENCASTLEPA.GOV,City,Non-Federal Agency,Greencastle,PA,39.79036639,-77.72776966
GREENEVILLETN.GOV,City,Non-Federal Agency,Greeneville,TN,36.16315726,-82.83098732
GREENFIELD-MA.GOV,City,Non-Federal Agency,Greenfield,MA,42.58758817,-72.59952973
GREENFIELD-NH.GOV,City,Non-Federal Agency,Greenfield,NH,42.95063845,-71.87229977
GREENHOUSTONTX.GOV,City,Non-Federal Agency,Houston,TX,29.76327617,-95.36326623
GREENISLANDNY.GOV,City,Non-Federal Agency,Green Island,NY,42.74423727,-73.69150633
GREENSBORO-GA.GOV,City,Non-Federal Agency,Greensboro,GA,33.57567987,-83.18237913
GREENSBORO-NC.GOV,City,Non-Federal Agency,Greensboro,NC,36.07263879,-79.79197949
GREENSBOROGA.GOV,City,Non-Federal Agency,Greensboro,GA,33.57567987,-83.18237913
GREENVILLENC.GOV,City,Non-Federal Agency,Greenville,NC,35.61265811,-77.36634824
GREENVILLESC.GOV,City,Non-Federal Agency,Greenville,SC,34.85261706,-82.39400859
GRESHAMOREGON.GOV,City,Non-Federal Agency,Gresham,OR,45.49817739,-122.4314783
GREYFOREST-TX.GOV,City,Non-Federal Agency,Grey Forest,TX,29.61549579,-98.68085783
GRIMESIOWA.GOV,City,Non-Federal Agency,Grimes,IA,41.68831597,-93.79105624
GROTON-CT.GOV,City,Non-Federal Agency,Groton,CT,41.35009898,-72.07840848
GROTONMA.GOV,City,Non-Federal Agency,Groton,MA,42.61119758,-71.57450719
GROTONSD.GOV,City,Non-Federal Agency,Groton,SD,45.44745789,-98.09870849
GROVECITYOHIO.GOV,City,Non-Federal Agency,Grove City,OH,39.88144731,-83.09295857
GROVELAND-FL.GOV,City,Non-Federal Agency,Groveland,FL,28.55804912,-81.85118576
GULFBREEZEFL.GOV,City,Non-Federal Agency,Gulf Breeze,FL,30.35713797,-87.16385983
GULFPORT-MS.GOV,City,Non-Federal Agency,Gulfport,MS,30.36741956,-89.09281615
GULFSHORESAL.GOV,City,Non-Federal Agency,Gulf Shores,AL,30.24603833,-87.70081968
GUNNISONCO.GOV,City,Non-Federal Agency,Gunnison,CO,38.54581733,-106.9253187
GUNTERSVILLEAL.GOV,City,Non-Federal Agency,Guntersville,AL,34.35814693,-86.29469895
GUNTERTX.GOV,City,Non-Federal Agency,Gunter,TX,32.8687296,-95.62967859
GUSTAVUS-AK.GOV,City,Non-Federal Agency,Gustavus,AK,58.41332733,-135.7369371
GWSCO.GOV,City,Non-Federal Agency,Glenwood Springs,CO,39.55053767,-107.3247798
HADDONFIELD-NJ.GOV,City,Non-Federal Agency,Haddonfield,NJ,39.89149942,-75.03766988
HADLEYMA.GOV,City,Non-Federal Agency,Hadley,MA,42.34175698,-72.58841572
HAHIRAGA.GOV,City,Non-Federal Agency,Hahira,GA,30.9913072,-83.37265825
HALLANDALEBEACHFL.GOV,City,Non-Federal Agency,hallandale beach,FL,25.98119979,-80.14837936
HAMILTON-NY.GOV,City,Non-Federal Agency,HAMILTON,NY,42.82700742,-75.54461739
HAMILTON-OH.GOV,City,Non-Federal Agency,Hamilton,OH,39.39949957,-84.56133577
HAMPDENMAINE.GOV,City,Non-Federal Agency,Hampden,ME,44.74451677,-68.83697711
HAMPSTEADMD.GOV,City,Non-Federal Agency,Hampstead,MD,39.60482985,-76.84997856
HAMPTON.GOV,City,Non-Federal Agency,Hampton,VA,37.02986585,-76.34521785
HAMPTONGA.GOV,City,Non-Federal Agency,Hampton,GA,33.38705661,-84.28297697
HAMPTONNH.GOV,City,Non-Federal Agency,Hampton,NH,42.93758961,-70.83893946
HAMPTONSC.GOV,City,Non-Federal Agency,Hampton,SC,32.87793578,-81.12760947
HAMPTONVA.GOV,City,Non-Federal Agency,Hampton,VA,37.02986585,-76.34521785
HANKSVILLEUTAH.GOV,City,Non-Federal Agency,Hanksville,UT,38.37303716,-110.7140365
HANNIBAL-MO.GOV,City,Non-Federal Agency,Hannibal,MO,39.70837917,-91.3584776
HANOVER-MA.GOV,City,Non-Federal Agency,Hanover,MA,42.11315927,-70.81198686
HANOVERVA.GOV,City,Non-Federal Agency,Hanover,VA,37.76652698,-77.37025839
HANSON-MA.GOV,City,Non-Federal Agency,Hanson,MA,42.07509715,-70.88003882
HAPPYVALLEYOR.GOV,City,Non-Federal Agency,Happy Valley,OR,45.44678745,-122.530366
HARMARTOWNSHIP-PA.GOV,City,Non-Federal Agency,Freeport,PA,40.67394848,-79.6847675
HARMONYTWP-NJ.GOV,City,Non-Federal Agency,Phillipsburg,NJ,40.69370623,-75.19017934
HARPERCOUNTYKS.GOV,City,Non-Federal Agency,Anthony,KS,37.15335739,-98.03116948
HARRAH-OK.GOV,City,Non-Federal Agency,Harrah,OK,35.48950854,-97.16363747
HARRINGTONPARKNJ.GOV,City,Non-Federal Agency,HARRINGTON PARK,NJ,40.98370999,-73.97985875
HARRISBURGPA.GOV,City,Non-Federal Agency,Harrisburg,PA,40.2737,-76.8844185
HARRISBURGSD.GOV,City,Non-Federal Agency,Harrisburg,SD,43.4313668,-96.69726735
HARRISON-NY.GOV,City,Non-Federal Agency,Harrison,NY,40.9689873,-73.71262746
HARRISONBURGVA.GOV,City,Non-Federal Agency,Harrisonburg,VA,38.44956637,-78.8689179
HARRISONOH.GOV,City,Non-Federal Agency,Harrison,OH,40.28339664,-81.06648689
HARRISONOHIO.GOV,City,Non-Federal Agency,Harrison,OH,40.28339664,-81.06648689
HARRISONTWP-PA.GOV,City,Non-Federal Agency,Natrona Heights,PA,40.62339997,-79.72976801
HARTFORD.GOV,City,Non-Federal Agency,Hartford,CT,41.76370678,-72.68508964
HARTSVILLESC.GOV,City,Non-Federal Agency,Hartsville,SC,34.37403952,-80.07339802
HARWICH-MA.GOV,City,Non-Federal Agency,Harwich,MA,41.68621916,-70.07584768
HASTINGSMN.GOV,City,Non-Federal Agency,Hastings,MN,44.74329738,-92.85242603
HAVERHILLMA.GOV,City,Non-Federal Agency,Haverhill,MA,42.77619793,-71.07727881
HAVREDEGRACEMD.GOV,City,Non-Federal Agency,Havre de Grace,MD,39.54927778,-76.09161585
HAWTHORNECA.GOV,City,Non-Federal Agency,Hawthorne,CA,33.91639863,-118.3525677
HAYESTOWNSHIPMI.GOV,City,Non-Federal Agency,Charlevoix,MI,45.31805837,-85.25839591
HAYSIVIRGINIA.GOV,City,Non-Federal Agency,Haysi,VA,37.20538628,-82.29402746
HAYWARD-CA.GOV,City,Non-Federal Agency,Hayward,CA,37.66881815,-122.0807974
HAZARDKY.GOV,City,Non-Federal Agency,Hazard,KY,37.24953636,-83.19322767
HAZLEHURSTGA.GOV,City,Non-Federal Agency,Hazlehurst,GA,31.86962926,-82.59429932
HEADOFTHEHARBORNY.GOV,City,Non-Federal Agency,Saint James,NY,40.87898629,-73.15677828
HEATHOHIO.GOV,City,Non-Federal Agency,Heath,OH,40.02283826,-82.4445976
HEDWIGTX.GOV,City,Non-Federal Agency,Houston,TX,29.76327617,-95.36326623
HELENAMT.GOV,City,Non-Federal Agency,Helena,MT,46.59270976,-112.0361092
HELOTES-TX.GOV,City,Non-Federal Agency,Helotes,TX,29.57800961,-98.68974904
HENDERSONNEVADA.GOV,City,Non-Federal Agency,Henderson,NV,36.03969722,-114.9819393
HENDERSONNV.GOV,City,Non-Federal Agency,Henderson,NV,36.03969722,-114.9819393
HENDERSONTN.GOV,City,Non-Federal Agency,Henderson,TN,35.439239,-88.64143871
HENDERSONVILLENC.GOV,City,Non-Federal Agency,Hendersonville,NC,35.31872619,-82.46094915
HEREFORD-TX.GOV,City,Non-Federal Agency,Hereford,TX,34.81505889,-102.397699
HERNDON-VA.GOV,City,Non-Federal Agency,Herndon,VA,38.96954923,-77.38609698
HEYWORTH-IL.GOV,City,Non-Federal Agency,Heyworth,IL,40.31336848,-88.97368923
HIALEAHFL.GOV,City,Non-Federal Agency,Hialeah,FL,25.85759575,-80.27810735
HIAWASSEEGA.GOV,City,Non-Federal Agency,Hiawassee,GA,34.94925948,-83.75738761
HICKORYCREEK-TX.GOV,City,Non-Federal Agency,Hickory Creek,TX,33.1223361,-97.04305717
HICKORYNC.GOV,City,Non-Federal Agency,Hickory,NC,35.73318892,-81.34119652
HIDEOUTUTAH.GOV,City,Non-Federal Agency,Hideout,UT,40.63803717,-111.4107592
HIGHLANDHEIGHTS-KY.GOV,City,Non-Federal Agency,Highland Heights,KY,39.03311959,-84.45188748
HIGHLANDIL.GOV,City,Non-Federal Agency,Highland,IL,38.73948914,-89.67119933
HIGHLANDS-NY.GOV,City,Non-Federal Agency,Highland Falls,NY,41.36925828,-73.96624745
HIGHPOINT-NC.GOV,City,Non-Federal Agency,High Point,NC,35.95568967,-80.00531906
HIGHPOINTNC.GOV,City,Non-Federal Agency,High Point,NC,35.95568967,-80.00531906
HILLIARDOHIO.GOV,City,Non-Federal Agency,Hilliard,OH,40.03339882,-83.15824778
HILLSBORO-OREGON.GOV,City,Non-Federal Agency,HILLSBORO,OR,45.5228892,-122.9898292
HILLSBOROUGHNC.GOV,City,Non-Federal Agency,Hillsborough,NC,36.07541955,-79.09972942
HILTONHEADISLANDSC.GOV,City,Non-Federal Agency,Hilton Head Island,SC,32.21631899,-80.75260825
HINGHAM-MA.GOV,City,Non-Federal Agency,Hingham,MA,42.24176686,-70.88976695
HIRAM-GA.GOV,City,Non-Federal Agency,Hiram,GA,33.87565925,-84.76215745
HOBOKENNJ.GOV,City,Non-Federal Agency,Hoboken,NJ,40.74398927,-74.03235559
HOLBROOKMA.GOV,City,Non-Federal Agency,Holbrook,MA,42.15509555,-71.0086599
HOLDEN-MA.GOV,City,Non-Federal Agency,Holden,MA,42.3517596,-71.86340856
HOLDENMA.GOV,City,Non-Federal Agency,HOLDEN,MA,42.3517596,-71.86340856
HOLDERNESS-NH.GOV,City,Non-Federal Agency,Holderness,NH,43.73201662,-71.58840646
HOLLANDTOWNSHIPNJ.GOV,City,Non-Federal Agency,Milford,NJ,40.56870732,-75.09461682
HOLLYWOODPARK-TX.GOV,City,Non-Federal Agency,Hollywood Park,TX,29.60049862,-98.48723551
HOMERGLENIL.GOV,City,Non-Federal Agency,Homer Glen,IL,41.6000293,-87.93810612
HOMEWOODIL.GOV,City,Non-Federal Agency,Homewood,IL,41.5572561,-87.6655968
HONDO-TX.GOV,City,Non-Federal Agency,Hondo,TX,29.34745907,-99.14141896
HOOPESTON-IL.GOV,City,Non-Federal Agency,Hoopeston,IL,40.46725932,-87.66835956
HOOVERAL.GOV,City,Non-Federal Agency,Hoover,AL,33.40538798,-86.8113791
HOOVERALABAMA.GOV,City,Non-Federal Agency,Hoover,AL,33.40538798,-86.8113791
HOPEDALE-MA.GOV,City,Non-Federal Agency,Hopedale,MA,42.13064922,-71.54116965
HOPEWELLVA.GOV,City,Non-Federal Agency,HOPEWELL,VA,37.304319,-77.28719576
HOPKINSPARK-IL.GOV,City,Non-Federal Agency,Hopkins Park,IL,41.06336643,-87.6250284
HOPKINSVILLE-KY.GOV,City,Non-Federal Agency,Hopkinsville,KY,36.86559893,-87.48861851
HOPKINTON-NH.GOV,City,Non-Federal Agency,Hopkinton,NH,43.19146608,-71.67534774
HOPKINTONMA.GOV,City,Non-Federal Agency,Hopkinton,MA,42.22870902,-71.5225593
HORICONNY.GOV,City,Non-Federal Agency,Brant Lake,NY,43.67645555,-73.74956918
HORSESHOE-BAY-TX.GOV,City,Non-Federal Agency,Horseshoe Bay,TX,30.54824952,-98.33779927
HOUSTON-AK.GOV,City,Non-Federal Agency,Houston,AK,61.63027636,-149.8180595
HOUSTONTX.GOV,City,Non-Federal Agency,Houston,TX,29.76327617,-95.36326623
HPCA.GOV,City,Non-Federal Agency,Huntington Park,CA,33.98167884,-118.225067
HRPDCVA.GOV,City,Non-Federal Agency,Chesapeake,VA,36.81903706,-76.27493859
HUACHUCACITYAZ.GOV,City,Non-Federal Agency,Huachuca City,AZ,31.62786571,-110.3339688
HUDSONNH.GOV,City,Non-Federal Agency,Hudson,NH,42.76480944,-71.43978915
HULMEVILLE-PA.GOV,City,Non-Federal Agency,Hulmeville,PA,40.14316658,-74.91099712
HUMBLETX.GOV,City,Non-Federal Agency,Humble,TX,29.99882577,-95.2621557
HUNTINGBURG-IN.GOV,City,Non-Federal Agency,Huntingburg,IN,38.29893774,-86.95499736
HUNTINGTONBEACHCA.GOV,City,Non-Federal Agency,Huntington Beach,CA,33.66029936,-117.9992276
HUNTINGTONNY.GOV,City,Non-Federal Agency,Huntington,NY,40.86814675,-73.42567892
HUNTSPOINT-WA.GOV,City,Non-Federal Agency,Hunts Point,WA,47.63757555,-122.225599
HUNTSVILLEAL.GOV,City,Non-Federal Agency,Huntsville,AL,34.7303674,-86.58609759
HUNTSVILLETX.GOV,City,Non-Federal Agency,Huntsville,TX,30.72352696,-95.55077809
HURLOCK-MD.GOV,City,Non-Federal Agency,Hurlock,MD,38.62427687,-75.8543789
HURONTOWNSHIP-MI.GOV,City,Non-Federal Agency,New Boston,MI,42.16253789,-83.40298556
HURSTTX.GOV,City,Non-Federal Agency,Hurst,TX,32.82345912,-97.17056685
HUTTOTX.GOV,City,Non-Federal Agency,Hutto,TX,30.54269701,-97.54666598
HVLNC.GOV,City,Non-Federal Agency,Hendersonville,NC,35.31872619,-82.46094915
IDABEL-OK.GOV,City,Non-Federal Agency,Idabel,OK,33.89565997,-94.82632887
IDAHOFALLSIDAHO.GOV,City,Non-Federal Agency,Idaho Falls,ID,43.46657617,-112.0341384
ILWACO-WA.GOV,City,Non-Federal Agency,Ilwaco,WA,46.30898744,-124.0432082
IMPERIALBEACHCA.GOV,City,Non-Federal Agency,Imperial Beach,CA,32.58393637,-117.1130762
INDEPENDENCEKS.GOV,City,Non-Federal Agency,INDEPENDENCE,KS,37.2242396,-95.70830911
INDEPENDENCEMO.GOV,City,Non-Federal Agency,Independence,MO,39.09111944,-94.41550633
INDEPENDENCEOHIO.GOV,City,Non-Federal Agency,Independence,OH,41.36865984,-81.63789569
INDIANAPOLIS-IN.GOV,City,Non-Federal Agency,Indianapolis,IN,39.76837684,-86.15803708
INDIANHEADPARK-IL.GOV,City,Non-Federal Agency,Indian Head Park,IL,41.77030769,-87.9022758
INDIANOLAIOWA.GOV,City,Non-Federal Agency,Indianola,IA,41.35804978,-93.55743697
INDIANOLAMS.GOV,City,Non-Federal Agency,Indianola,MS,33.45094644,-90.65508652
INDIANPOINT-MO.GOV,City,Non-Federal Agency,Branson,MO,36.64366962,-93.21850905
INDY.GOV,City,Non-Federal Agency,Indianapolis,IN,39.76837684,-86.15803708
INGLESIDETX.GOV,City,Non-Federal Agency,Ingleside,TX,27.87779949,-97.21165721
INTERLACHEN-FL.GOV,City,Non-Federal Agency,Interlachen,FL,29.62385604,-81.89036828
INVERNESS-FL.GOV,City,Non-Federal Agency,Inverness,FL,28.83581847,-82.33036624
INVERNESS-IL.GOV,City,Non-Federal Agency,Inverness,IL,42.11807733,-88.09618609
IPSWICH-MA.GOV,City,Non-Federal Agency,Ipswich,MA,42.67925854,-70.84115777
IPSWICHMA.GOV,City,Non-Federal Agency,Ipswich,MA,42.67925854,-70.84115777
IRONTONMO.GOV,City,Non-Federal Agency,Ironton,MO,37.59727,-90.62733748
IRVINGTONNY.GOV,City,Non-Federal Agency,Irvington,NY,41.03921707,-73.86822815
IRWINDALECA.GOV,City,Non-Federal Agency,Irwindale,CA,34.10694772,-117.9353377
ISLIP-NY.GOV,City,Non-Federal Agency,Islip,NY,40.72981553,-73.21038653
ISLIPNY.GOV,City,Non-Federal Agency,Islip,NY,40.72981553,-73.21038653
ISLIPTOWN-NY.GOV,City,Non-Federal Agency,Islip,NY,40.72981553,-73.21038653
ISSAQUAHWA.GOV,City,Non-Federal Agency,Issaquah,WA,47.53009808,-122.0326156
JACINTOCITY-TX.GOV,City,Non-Federal Agency,Jacinto City,TX,29.7674473,-95.23381721
JACKSON-SC.GOV,City,Non-Federal Agency,Jackson,SC,33.32541658,-81.78788988
JACKSONMS.GOV,City,Non-Federal Agency,Jackson,MS,32.29875618,-90.18480625
JACKSONTOWNSHIP-PA.GOV,City,Non-Federal Agency,Myerstown,PA,40.37453605,-76.30272812
JACKSONTOWNSHIPPA.GOV,City,Non-Federal Agency,Jackson Township,PA,40.37533698,-76.33366737
JACKSONTWP-PA.GOV,City,Non-Federal Agency,Reeders,PA,41.01897787,-75.3360159
JACKSONVILLENC.GOV,City,Non-Federal Agency,Jacksonville,NC,34.7540488,-77.43023807
JAMESTOWN-NC.GOV,City,Non-Federal Agency,Jamestown,NC,35.99429624,-79.93530977
JAMESTOWNRI.GOV,City,Non-Federal Agency,Jamestown,RI,41.49704694,-71.36727808
JAMESTOWNTN.GOV,City,Non-Federal Agency,Jamestown,TN,36.4275673,-84.93188689
JANESVILLEMN.GOV,City,Non-Federal Agency,Janesville,MN,44.11607554,-93.70799811
JEFFERSONCITYMO.GOV,City,Non-Federal Agency,Jefferson City,MO,38.57669809,-92.17351728
JEFFERSONTOWNKY.GOV,City,Non-Federal Agency,Jeffersontown,KY,38.19423653,-85.56439576
JEMEZSPRINGS-NM.GOV,City,Non-Federal Agency,Jemez Springs,NM,35.76863677,-106.6922574
JERICHOVT.GOV,City,Non-Federal Agency,Jericho,VT,44.50393662,-72.99762741
JERSEYCITYNJ.GOV,City,Non-Federal Agency,Jersey City,NJ,40.72815967,-74.07763957
JESUPGA.GOV,City,Non-Federal Agency,Jesup,GA,31.60743753,-81.88538723
JOHNSCREEKGA.GOV,City,Non-Federal Agency,Johns Creek,GA,34.02892915,-84.19857796
JOHNSONCITYTN.GOV,City,Non-Federal Agency,Johnson City,TN,36.31343942,-82.35346719
JONESVILLENC.GOV,City,Non-Federal Agency,Jonesville,NC,36.2392995,-80.84451709
JORDANMN.GOV,City,Non-Federal Agency,Jordan,MN,44.66690766,-93.62689731
JUNCTIONCITY-KS.GOV,City,Non-Federal Agency,Junction City,KS,39.02860649,-96.83139595
JUNCTIONCITYOREGON.GOV,City,Non-Federal Agency,Junction City,OR,44.21928738,-123.2056481
KANNAPOLISNC.GOV,City,Non-Federal Agency,Concord,NC,35.40874971,-80.57950861
KANSASCITYMO.GOV,City,Non-Federal Agency,Kansas City,MO,39.09972718,-94.57856736
KCMO.GOV,City,Non-Federal Agency,Kansas City,MO,39.09972718,-94.57856736
KEANSBURGNJ.GOV,City,Non-Federal Agency,Keansburg,NJ,40.44176909,-74.12985744
KELSO.GOV,City,Non-Federal Agency,Kelso,WA,46.14677684,-122.9084359
KEMAH-TX.GOV,City,Non-Federal Agency,Kemah,TX,29.54272824,-95.02047765
KENMOREWA.GOV,City,Non-Federal Agency,Kenmore,WA,47.75731892,-122.2440069
KENNEBUNKPORTME.GOV,City,Non-Federal Agency,Kennebunkport,ME,43.36174897,-70.47671711
KENNESAW-GA.GOV,City,Non-Federal Agency,Kennesaw,GA,34.02342614,-84.61548846
KENTWA.GOV,City,Non-Federal Agency,Kent,WA,47.38092732,-122.2348367
KERRVILLETX.GOV,City,Non-Federal Agency,Kerrville,TX,30.04742596,-99.14031656
KILLEENTEXAS.GOV,City,Non-Federal Agency,Killeen,TX,31.11711604,-97.7277974
KILLINGLYCT.GOV,City,Non-Federal Agency,Danielson,CT,41.80259683,-71.88590656
KINDERHOOK-NY.GOV,City,Non-Federal Agency,Niverville,NY,42.44091919,-73.66094955
KINGSLANDGA.GOV,City,Non-Federal Agency,Kingsland,GA,30.79995718,-81.68982558
KINGSPORTTN.GOV,City,Non-Federal Agency,Kingsport,TN,36.54842657,-82.5618167
KINGSTON-NY.GOV,City,Non-Federal Agency,Kingston,NY,41.92703779,-73.99735769
KINGSTONSPRINGS-TN.GOV,City,Non-Federal Agency,Kingston Springs,TN,36.10199869,-87.11500766
KINROSSTOWNSHIP-MI.GOV,City,Non-Federal Agency,Kincheloe,MI,42.01965757,-86.05213898
KINSTONNC.GOV,City,Non-Federal Agency,Kinston,NC,35.26265667,-77.58163613
KIRKLANDWA.GOV,City,Non-Federal Agency,Kirkland,WA,47.68148715,-122.208739
KISSIMMEEFL.GOV,City,Non-Federal Agency,Kissimmee,FL,28.30467661,-81.41666832
KITTERYME.GOV,City,Non-Federal Agency,Kittery,ME,43.08813725,-70.73615958
KITTYHAWKNC.GOV,City,Non-Federal Agency,Kitty Hawk,NC,36.06460701,-75.7057256
KNIGHTDALENC.GOV,City,Non-Federal Agency,Knightdale,NC,35.78764758,-78.48055736
KNOXVILLEIA.GOV,City,Non-Federal Agency,Knoxville,IA,41.32082908,-93.10936673
KNOXVILLEIOWA.GOV,City,Non-Federal Agency,Knoxville,IA,41.32082908,-93.10936673
KNOXVILLETN.GOV,City,Non-Federal Agency,Knoxville,TN,35.96063923,-83.92073661
KUNAID.GOV,City,Non-Federal Agency,Kuna,ID,43.49182793,-116.4201197
LACKAWANNANY.GOV,City,Non-Federal Agency,Lackawanna,NY,42.82560805,-78.82336844
LACKAWAXENTOWNSHIPPA.GOV,City,Non-Federal Agency,Hawley,PA,41.47591682,-75.18211606
LAFOLLETTETN.GOV,City,Non-Federal Agency,LaFollette,TN,36.38285926,-84.11992944
LAGRANGEGA.GOV,City,Non-Federal Agency,LaGrange,GA,33.03928697,-85.03132806
LAGRANGENY.GOV,City,Non-Federal Agency,Lagrangeville,NY,41.65092879,-73.762906
LAGUNAHILLSCA.GOV,City,Non-Federal Agency,Laguna Hills,CA,33.5955996,-117.7003056
LAHABRACA.GOV,City,Non-Federal Agency,LA HABRA,CA,33.93195825,-117.9461683
LAKEFORESTCA.GOV,City,Non-Federal Agency,Lake Forest,CA,33.64696704,-117.6892186
LAKEGROVENY.GOV,City,Non-Federal Agency,Lake Grove,NY,40.8528796,-73.11510748
LAKEJACKSON-TX.GOV,City,Non-Federal Agency,Lake Jackson,TX,29.0338594,-95.43438692
LAKEJACKSONTX.GOV,City,Non-Federal Agency,Lake Jackson,TX,29.0338594,-95.43438692
LAKELANDGA.GOV,City,Non-Federal Agency,Lakeland,GA,33.76621996,-84.70493603
LAKELANDTN.GOV,City,Non-Federal Agency,Lakeland,TN,35.23063751,-89.74035819
LAKEPARKNC.GOV,City,Non-Federal Agency,Indian Trail,NC,35.07680966,-80.66923964
LAKEPROVIDENCELA.GOV,City,Non-Federal Agency,Lake Providence,LA,32.80429982,-91.17010632
LAKESITETN.GOV,City,Non-Federal Agency,Lakesite,TN,35.20867946,-85.12689958
LAKESTATION-IN.GOV,City,Non-Federal Agency,Lake Station,IN,41.57503852,-87.23891767
LAKESTEVENSWA.GOV,City,Non-Federal Agency,Lake Stevens,WA,48.01509654,-122.0637394
LAKEVILLE-MN.GOV,City,Non-Federal Agency,Lakeville,MN,44.64968768,-93.2427169
LAKEVILLEMN.GOV,City,Non-Federal Agency,Lakeville,MN,44.64968768,-93.2427169
LAKEVILLEMNFIRE.GOV,City,Non-Federal Agency,Lakeville,MN,44.64968768,-93.2427169
LAKEWAY-TX.GOV,City,Non-Federal Agency,Lakeway,TX,30.36376589,-97.97958606
LAKEWOODNJ.GOV,City,Non-Federal Agency,Lakewood,NJ,40.0978871,-74.21763565
LANCASTERNY.GOV,City,Non-Federal Agency,Lancaster,NY,42.90060739,-78.67030553
LANESBORO-MN.GOV,City,Non-Federal Agency,Lanesboro,MN,43.72079911,-91.97681723
LANESBOROUGH-MA.GOV,City,Non-Federal Agency,LANESBOROUGH,MA,42.51730891,-73.22815995
LANSINGMI.GOV,City,Non-Federal Agency,Lansing,MI,42.73253831,-84.55552678
LANTABUS-PA.GOV,City,Non-Federal Agency,Allentown,PA,40.6084298,-75.49017672
LAPORTETX.GOV,City,Non-Federal Agency,La Porte,TX,29.66577882,-95.01936624
LAREDOTEXAS.GOV,City,Non-Federal Agency,Laredo,TX,27.50640694,-99.50753797
LASALLE-IL.GOV,City,Non-Federal Agency,LaSalle,IL,41.26669888,-88.88340924
LASVEGASNEVADA.GOV,City,Non-Federal Agency,Las Vegas,NV,36.17496871,-115.137216
LASVEGASNM.GOV,City,Non-Federal Agency,Las Vegas,NM,35.59392627,-105.2238982
LAUDERDALEBYTHESEA-FL.GOV,City,Non-Federal Agency,Lauderdale By The Sea,FL,26.19202858,-80.09642697
LAUDERHILL-FL.GOV,City,Non-Federal Agency,Lauderhill,FL,26.14035966,-80.2133761
LAUDERHILLFL.GOV,City,Non-Federal Agency,Lauderhill,FL,26.14035966,-80.2133761
LAVERGNETN.GOV,City,Non-Federal Agency,La Vergne,TN,36.01561985,-86.58193996
LAVERNIA-TX.GOV,City,Non-Federal Agency,La Vernia,TX,29.35634578,-98.1155595
LAWRENCEBURGTN.GOV,City,Non-Federal Agency,Lawrenceburg,TN,35.24229598,-87.33473666
LAWTONMI.GOV,City,Non-Federal Agency,Lawton,MI,42.16725797,-85.84694819
LAWTONOK.GOV,City,Non-Federal Agency,Lawton,OK,34.6086892,-98.39032761
LBTS-FL.GOV,City,Non-Federal Agency,Lauderdale-By-The-Sea,FL,26.19202858,-80.09642697
LEADVILLE-CO.GOV,City,Non-Federal Agency,Leadville,CO,39.25081927,-106.2925174
LEAGUECITY-TX.GOV,City,Non-Federal Agency,League City,TX,29.50744687,-95.09492804
LEAGUECITYTX.GOV,City,Non-Federal Agency,League City,TX,29.50744687,-95.09492804
LEANDERTX.GOV,City,Non-Federal Agency,Leander,TX,30.5788063,-97.85306629
LEBANONCT.GOV,City,Non-Federal Agency,Lebanon,CT,41.63620609,-72.21257757
LEBANONNH.GOV,City,Non-Federal Agency,Lebanon,NH,43.64228558,-72.25175559
LEBANONOHIO.GOV,City,Non-Federal Agency,Lebanon,OH,39.43533889,-84.20298757
LECLAIREIOWA.GOV,City,Non-Federal Agency,LECLAIRE,IA,41.59863893,-90.34345767
LEEDSALABAMA.GOV,City,Non-Federal Agency,Leeds,AL,33.54815581,-86.54442679
LEESBURGFLORIDA.GOV,City,Non-Federal Agency,Leesburg,FL,28.81081869,-81.87785939
LEESBURGVA.GOV,City,Non-Federal Agency,Leesburg,VA,39.11565576,-77.56359723
LEESVILLELA.GOV,City,Non-Federal Agency,LEESVILLE,LA,31.14351969,-93.26099878
LEHI-UT.GOV,City,Non-Federal Agency,Lehi,UT,40.39161654,-111.8507662
LENEXA-KS.GOV,City,Non-Federal Agency,Lenexa,KS,38.95361614,-94.73356961
LENOIR-NC.GOV,City,Non-Federal Agency,Lenoir,NC,35.91401887,-81.53897647
LENOIRCITYTN.GOV,City,Non-Federal Agency,Lenoir City,TN,35.79729923,-84.25602886
LEOMINSTER-MA.GOV,City,Non-Federal Agency,Leominster,MA,42.52508872,-71.75978725
LEONIANJ.GOV,City,Non-Federal Agency,Leonia,NJ,40.86148734,-73.98818751
LEONVALLEYTEXAS.GOV,City,Non-Federal Agency,Leon Valley,TX,29.49522596,-98.61862835
LEROYTOWNSHIP-MI.GOV,City,Non-Federal Agency,Webberville,MI,42.66697913,-84.17412713
LEWISBURGTN.GOV,City,Non-Federal Agency,Lewisburg,TN,35.44923711,-86.7888856
LEWISTONMAINE.GOV,City,Non-Federal Agency,Lewiston,ME,44.10034943,-70.21477735
LEXINGTONKY.GOV,City,Non-Federal Agency,lexington,KY,37.98868577,-84.47771969
LEXINGTONNC.GOV,City,Non-Federal Agency,Lexington,NC,35.82402685,-80.25337755
LEXINGTONTN.GOV,City,Non-Federal Agency,Lexington,TN,35.65089572,-88.39337572
LEXINGTONVA.GOV,City,Non-Federal Agency,Lexington,VA,37.78401693,-79.44281947
LHCAZ.GOV,City,Non-Federal Agency,Lake Havasu City,AZ,34.48389727,-114.3224463
LIBERTYHILLTX.GOV,City,Non-Federal Agency,Liberty Hill,TX,30.67380637,-97.14331727
LIBERTYIN.GOV,City,Non-Federal Agency,Liberty,IN,39.63559812,-84.93106796
LIBERTYLAKEWA.GOV,City,Non-Federal Agency,Liberty Lake,WA,47.67590764,-117.1182057
LIBERTYMISSOURI.GOV,City,Non-Federal Agency,Liberty,MO,39.24610819,-94.41911951
LIBERTYMO.GOV,City,Non-Federal Agency,Liberty,MO,39.24610819,-94.41911951
LINCOLNCA.GOV,City,Non-Federal Agency,Lincoln,CA,38.89155765,-121.2930073
LINCOLNIL.GOV,City,Non-Federal Agency,Lincoln,IL,40.14837712,-89.36481702
LINCOLNSHIREIL.GOV,City,Non-Federal Agency,Lincolnshire,IL,42.19001695,-87.90839976
LINDALE-TX.GOV,City,Non-Federal Agency,Lindale,TX,32.51569993,-95.40939613
LINDALETX.GOV,City,Non-Federal Agency,Lindale,TX,32.51569993,-95.40939613
LINDENWOLDNJ.GOV,City,Non-Federal Agency,Lindenwold,NJ,39.82427988,-74.99766843
LINNDALEVILLAGE-OH.GOV,City,Non-Federal Agency,Linndale,OH,41.44671891,-81.76707922
LINTON-IN.GOV,City,Non-Federal Agency,Linton,IN,39.03476644,-87.16584865
LITCHFIELD-NH.GOV,City,Non-Federal Agency,Litchfield,NH,42.84424989,-71.4797861
LITCHFIELDNH.GOV,City,Non-Federal Agency,Litchfield,NH,42.84424989,-71.4797861
LITTLEROCKAR.GOV,City,Non-Federal Agency,Little Rock,AR,34.74647597,-92.28958898
LOCKHAVENPA.GOV,City,Non-Federal Agency,Lock Haven,PA,41.13700689,-77.44692709
LOCKPORTNY.GOV,City,Non-Federal Agency,Lockport,NY,43.17060593,-78.69030625
LOCUSTGROVE-GA.GOV,City,Non-Federal Agency,Locust Grove,GA,33.34594825,-84.1090764
LODI.GOV,City,Non-Federal Agency,Lodi,CA,38.13019821,-121.2724486
LODICA.GOV,City,Non-Federal Agency,Lodi,CA,38.13019821,-121.2724486
LOGANCO.GOV,City,Non-Federal Agency,Sterling,CO,40.62553728,-103.2077081
LOGANTOWNSHIP-PA.GOV,City,Non-Federal Agency,Altoona,PA,40.51867626,-78.39473648
LOGANVILLE-GA.GOV,City,Non-Federal Agency,Loganville,GA,33.8389965,-83.90073589
LOMALINDA-CA.GOV,City,Non-Federal Agency,Loma Linda,CA,34.04834942,-117.2611491
LONDONBRITAINTOWNSHIP-PA.GOV,City,Non-Federal Agency,Landenberg,PA,39.77732655,-75.77132977
LONDONKY.GOV,City,Non-Federal Agency,London,KY,37.12897856,-84.08325769
LONEOAKTX.GOV,City,Non-Federal Agency,LONE OAK,TX,29.36689735,-98.24472953
LONGBEACH.GOV,City,Non-Federal Agency,Long Beach,CA,33.76695789,-118.1892277
LONGBEACHNY.GOV,City,Non-Federal Agency,Long Beach,NY,40.58843807,-73.65790782
LONGBEACHWA.GOV,City,Non-Federal Agency,Long Beach,WA,46.3523186,-124.0543177
LONGHILLNJ.GOV,City,Non-Federal Agency,Long Hill,NJ,40.70787997,-74.42959834
LONGLAKEMN.GOV,City,Non-Federal Agency,Long Lake,MN,44.98662678,-93.57161971
LONGMONTCOLORADO.GOV,City,Non-Federal Agency,Longmont,CO,40.16720795,-105.1019275
LONGPORTNJ.GOV,City,Non-Federal Agency,Longport,NJ,39.31427714,-74.52487738
LONGVIEWTEXAS.GOV,City,Non-Federal Agency,Longview,TX,32.50069826,-94.74048999
LONGVIEWTX.GOV,City,Non-Federal Agency,Longview,TX,32.50069826,-94.74048999
LORENATX.GOV,City,Non-Federal Agency,Lorena,TX,31.38655663,-97.21555836
LOSALTOSCA.GOV,City,Non-Federal Agency,Los Altos,CA,37.38521732,-122.1141259
LOSGATOSCA.GOV,City,Non-Federal Agency,Los Gatos,CA,37.22660639,-121.9746788
LOSLUNASNM.GOV,City,Non-Federal Agency,Los Lunas,NM,34.80616768,-106.7333568
LOSRANCHOSNM.GOV,City,Non-Federal Agency,Los Ranchos de Albuquerque,NM,35.1619871,-106.6427978
LOTT-TX.GOV,City,Non-Federal Agency,Lott,TX,31.20350837,-97.03665873
LOUISBURGKANSAS.GOV,City,Non-Federal Agency,Louisburg,KS,38.61945779,-94.68078929
LOUISVILLECO.GOV,City,Non-Federal Agency,Louisville,CO,39.97775676,-105.1319264
LOUISVILLEKY.GOV,City,Non-Federal Agency,Louisville,KY,38.2542387,-85.75940845
LOUISVILLETN.GOV,City,Non-Federal Agency,Louisville,TN,35.82174556,-84.04795832
LOVEJOY-GA.GOV,City,Non-Federal Agency,Lovejoy,GA,33.43621924,-84.31436618
LOVELANDOH.GOV,City,Non-Federal Agency,Loveland,OH,39.26894816,-84.26382667
LOVETTSVILLEVA.GOV,City,Non-Federal Agency,Lovettsville,VA,39.27259734,-77.63665725
LOVINGTON-IL.GOV,City,Non-Federal Agency,Lovington,IL,39.71558753,-88.6325565
LOWELLARKANSAS.GOV,City,Non-Federal Agency,Lowell,AR,36.25534958,-94.1307581
LOWERALLOWAYSCREEK-NJ.GOV,City,Non-Federal Agency,Hancocks Bridge,NJ,39.50538868,-75.46186974
LOWERPAXTON-PA.GOV,City,Non-Federal Agency,Harrisburg,PA,40.2737,-76.8844185
LUBBOCKTX.GOV,City,Non-Federal Agency,Lubbock,TX,33.57785767,-101.8551687
LUDINGTON-MI.GOV,City,Non-Federal Agency,Ludington,MI,43.9552778,-86.45257644
LUNENBURGMA.GOV,City,Non-Federal Agency,Lunenburg,MA,42.59452655,-71.72451938
LYMAN-ME.GOV,City,Non-Federal Agency,Lyman,ME,45.9983755,-68.35613628
LYMANSC.GOV,City,Non-Federal Agency,Lyman,SC,34.94816608,-82.12732626
LYMECT.GOV,City,Non-Federal Agency,Lyme,CT,41.41203599,-72.33674855
LYMENH.GOV,City,Non-Federal Agency,Lyme,NH,43.80950874,-72.1559186
LYNCHBURGVA.GOV,City,Non-Federal Agency,Lynchburg,VA,37.41374929,-79.14224615
LYNDONKS.GOV,City,Non-Federal Agency,Lyndon,KS,38.61000863,-95.68442973
LYNNMA.GOV,City,Non-Federal Agency,Lynn,MA,42.46675589,-70.94948565
LYNNWOODWA.GOV,City,Non-Federal Agency,Lynnwood,WA,47.82092977,-122.3151276
LYONSTOWNSHIPIL.GOV,City,Non-Federal Agency,Countryside,IL,41.78280758,-87.87810844
MACOMB-MI.GOV,City,Non-Federal Agency,Macomb,MI,42.70086562,-82.95908645
MADEIRABEACHFL.GOV,City,Non-Federal Agency,Madeira Beach,FL,27.7976571,-82.79717732
MADERA-CA.GOV,City,Non-Federal Agency,Madera,CA,36.96133693,-120.0607196
MADISON-IN.GOV,City,Non-Federal Agency,Madison,IN,38.73588946,-85.37995713
MADISONAL.GOV,City,Non-Federal Agency,Madison,AL,34.69925716,-86.7483262
MADISONLAKEMN.GOV,City,Non-Federal Agency,Madison LAke,MN,44.2044072,-93.81550707
MAHARISHIVEDICCITY-IOWA.GOV,City,Non-Federal Agency,Maharishi Vedic City,IA,41.05251789,-91.99489663
MAHOMET-IL.GOV,City,Non-Federal Agency,Mahomet,IL,40.19530796,-88.40421976
MAHWAH-NJ.GOV,City,Non-Federal Agency,Mahwah,NJ,41.08870818,-74.1437567
MAIDENNC.GOV,City,Non-Federal Agency,Maiden,NC,35.57568939,-81.2117475
MALIBU-CA.GOV,City,Non-Federal Agency,Malibu,CA,34.00500927,-118.8100871
MALVERNAR.GOV,City,Non-Federal Agency,Malvern,AR,34.36230906,-92.81294654
MAMARONECK-NY.GOV,City,Non-Federal Agency,Mamaroneck,NY,40.9487076,-73.73262818
MAMARONECKVILLAGENY.GOV,City,Non-Federal Agency,Mamaroneck,NY,40.9487076,-73.73262818
